{
  "KQGX": {
    "id": "KQGX",
    "city": "al dhafra",
    "region": "",
    "country": "ae",
    "latitude": 24.25,
    "longitude": 54.533333333333,
    "time": "2015-03-01T00:58:00+04:00",
    "temp": 14,
    "dewpoint": 7,
    "humidity": 63,
    "conditions": "Clear",
    "weather_primary_coded": "::CL",
    "clouds_coded": "CL",
    "is_day": false,
    "wind_kph": 6,
    "wind_direction": "ENE"
  },
  "OMFJ": {
    "id": "OMFJ",
    "city": "fujairah intl ar",
    "region": "",
    "country": "ae",
    "latitude": 25.1,
    "longitude": 56.316666666667,
    "time": "2015-03-01T01:00:00+04:00",
    "temp": 17,
    "dewpoint": 3,
    "humidity": 39,
    "conditions": "Mostly Clear",
    "weather_primary_coded": "::FW",
    "clouds_coded": "FW",
    "is_day": false,
    "wind_kph": 13,
    "wind_direction": "W"
  },
  "OMAL": {
    "id": "OMAL",
    "city": "al ain intnl arp",
    "region": "",
    "country": "ae",
    "latitude": 24.25,
    "longitude": 55.6,
    "time": "2015-03-01T01:00:00+04:00",
    "temp": 14,
    "dewpoint": -1,
    "humidity": 36,
    "conditions": "Mostly Clear",
    "weather_primary_coded": "::FW",
    "clouds_coded": "FW",
    "is_day": false,
    "wind_kph": 9,
    "wind_direction": "NE"
  },
  "OMAD": {
    "id": "OMAD",
    "city": "abu dhabi/bateen",
    "region": "",
    "country": "ae",
    "latitude": 24.416666666667,
    "longitude": 54.466666666667,
    "time": "2015-03-01T01:00:00+04:00",
    "temp": 18,
    "dewpoint": 9,
    "humidity": 56,
    "conditions": "Mostly Clear",
    "weather_primary_coded": "::FW",
    "clouds_coded": "FW",
    "is_day": false,
    "wind_kph": 7,
    "wind_direction": "NNW"
  },
  "OMDW": {
    "id": "OMDW",
    "city": "dubai al maktoum",
    "region": "",
    "country": "ae",
    "latitude": 24.9,
    "longitude": 55.166666666667,
    "time": "2015-03-01T01:00:00+04:00",
    "temp": 15,
    "dewpoint": 3,
    "humidity": 45,
    "conditions": "Mostly Clear",
    "weather_primary_coded": "::FW",
    "clouds_coded": "FW",
    "is_day": false,
    "wind_kph": 6,
    "wind_direction": "SSW"
  },
  "OMAA": {
    "id": "OMAA",
    "city": "abu dhabi intl",
    "region": "",
    "country": "ae",
    "latitude": 24.416666666667,
    "longitude": 54.633333333333,
    "time": "2015-03-01T01:00:00+04:00",
    "temp": 16,
    "dewpoint": 7,
    "humidity": 55,
    "conditions": "Mostly Clear",
    "weather_primary_coded": "::FW",
    "clouds_coded": "FW",
    "is_day": false,
    "wind_kph": 9,
    "wind_direction": "E"
  },
  "OMDB": {
    "id": "OMDB",
    "city": "dubai intl airpo",
    "region": "",
    "country": "ae",
    "latitude": 25.25,
    "longitude": 55.366666666667,
    "time": "2015-03-01T01:00:00+04:00",
    "temp": 20,
    "dewpoint": 6,
    "humidity": 40,
    "conditions": "Mostly Clear",
    "weather_primary_coded": "::FW",
    "clouds_coded": "FW",
    "is_day": false,
    "wind_kph": 9,
    "wind_direction": "NNW"
  },
  "OMRK": {
    "id": "OMRK",
    "city": "ras al khaimah",
    "region": "",
    "country": "ae",
    "latitude": 25.616666666667,
    "longitude": 55.916666666667,
    "time": "2015-03-01T01:00:00+04:00",
    "temp": 10,
    "dewpoint": 3,
    "humidity": 62,
    "conditions": "Mostly Clear",
    "weather_primary_coded": "::FW",
    "clouds_coded": "FW",
    "is_day": false,
    "wind_kph": 0,
    "wind_direction": "N"
  },
  "OMSJ": {
    "id": "OMSJ",
    "city": "sharjah intl arp",
    "region": "",
    "country": "ae",
    "latitude": 25.316666666667,
    "longitude": 55.516666666667,
    "time": "2015-03-01T01:00:00+04:00",
    "temp": 14,
    "dewpoint": 3,
    "humidity": 48,
    "conditions": "Mostly Clear",
    "weather_primary_coded": "::FW",
    "clouds_coded": "FW",
    "is_day": false,
    "wind_kph": 7,
    "wind_direction": "SSE"
  },
  "OAHR": {
    "id": "OAHR",
    "city": "herat",
    "region": "",
    "country": "af",
    "latitude": 34.216666666667,
    "longitude": 62.216666666667,
    "time": "2015-02-28T21:24:00+04:30",
    "temp": 2,
    "dewpoint": -2,
    "humidity": 75,
    "conditions": "Mostly Clear",
    "weather_primary_coded": "::FW",
    "clouds_coded": "FW",
    "is_day": false,
    "wind_kph": 4,
    "wind_direction": "WSW"
  },
  "OAMS": {
    "id": "OAMS",
    "city": "mazar-i-sharif",
    "region": "",
    "country": "af",
    "latitude": 36.7,
    "longitude": 67.2,
    "time": "2015-03-01T01:20:00+04:30",
    "temp": 1,
    "dewpoint": 1,
    "humidity": 100,
    "conditions": "Mostly Clear",
    "weather_primary_coded": "::FW",
    "clouds_coded": "FW",
    "is_day": false,
    "wind_kph": 2,
    "wind_direction": "SW"
  },
  "OAKB": {
    "id": "OAKB",
    "city": "kabul intl (mil)",
    "region": "",
    "country": "af",
    "latitude": 34.55,
    "longitude": 69.216666666667,
    "time": "2015-03-01T01:20:00+04:30",
    "temp": 3,
    "dewpoint": -3,
    "humidity": 65,
    "conditions": "Mostly Cloudy",
    "weather_primary_coded": "::BK",
    "clouds_coded": "BK",
    "is_day": false,
    "wind_kph": 6,
    "wind_direction": "SSE"
  },
  "KQL5": {
    "id": "KQL5",
    "city": "jalalabad",
    "region": "",
    "country": "af",
    "latitude": 34.416666666667,
    "longitude": 70.466666666667,
    "time": "2015-03-01T01:25:00+04:30",
    "temp": 13,
    "dewpoint": 4,
    "humidity": 55,
    "conditions": "Mostly Cloudy",
    "weather_primary_coded": "::BK",
    "clouds_coded": "BK",
    "is_day": false,
    "wind_kph": 4,
    "wind_direction": "WNW"
  },
  "KQXT": {
    "id": "KQXT",
    "city": "fob dwyer",
    "region": "",
    "country": "af",
    "latitude": 31.1,
    "longitude": 64.083333333333,
    "time": "2015-03-01T01:25:00+04:30",
    "temp": 7,
    "dewpoint": -1,
    "humidity": 57,
    "conditions": "Mostly Clear",
    "weather_primary_coded": "::FW",
    "clouds_coded": "FW",
    "is_day": false,
    "wind_kph": 9,
    "wind_direction": "W"
  },
  "KQHN": {
    "id": "KQHN",
    "city": "kandahar",
    "region": "",
    "country": "af",
    "latitude": 31.5,
    "longitude": 65.85,
    "time": "2015-03-01T01:25:00+04:30",
    "temp": 10,
    "dewpoint": 5,
    "humidity": 71,
    "conditions": "Mostly Cloudy",
    "weather_primary_coded": "::BK",
    "clouds_coded": "BK",
    "is_day": false,
    "wind_kph": 28,
    "wind_direction": "NE"
  },
  "KQSF": {
    "id": "KQSF",
    "city": "kabul soccer fld",
    "region": "",
    "country": "af",
    "latitude": 34.533333333333,
    "longitude": 69.183333333333,
    "time": "2015-03-01T01:25:00+04:30",
    "temp": 4,
    "dewpoint": -6,
    "humidity": 48,
    "conditions": "Mostly Cloudy",
    "weather_primary_coded": "::BK",
    "clouds_coded": "BK",
    "is_day": false,
    "wind_kph": 6,
    "wind_direction": "ENE"
  },
  "KQSA": {
    "id": "KQSA",
    "city": "bagram",
    "region": "",
    "country": "af",
    "latitude": 34.95,
    "longitude": 69.283333333333,
    "time": "2015-03-01T01:28:00+04:30",
    "temp": 3,
    "dewpoint": -1,
    "humidity": 75,
    "conditions": "Hazy",
    "weather_primary_coded": "::H",
    "clouds_coded": "BK",
    "is_day": false,
    "wind_kph": 4,
    "wind_direction": "S"
  },
  "TAPA": {
    "id": "TAPA",
    "city": "coolidge/antigua",
    "region": "",
    "country": "ag",
    "latitude": 17.116666666667,
    "longitude": -61.783333333333,
    "time": "2015-02-28T16:00:00-04:00",
    "temp": 27,
    "dewpoint": 19,
    "humidity": 62,
    "conditions": "Partly Cloudy",
    "weather_primary_coded": "::SC",
    "clouds_coded": "SC",
    "is_day": true,
    "wind_kph": 28,
    "wind_direction": "E"
  },
  "TKPN": {
    "id": "TKPN",
    "city": "charlestown/newc",
    "region": "",
    "country": "ag",
    "latitude": 17.183333333333,
    "longitude": -62.566666666667,
    "time": "2015-02-28T16:00:00-04:00",
    "temp": 29,
    "dewpoint": 19,
    "humidity": 55,
    "conditions": "Partly Cloudy",
    "weather_primary_coded": "::SC",
    "clouds_coded": "SC",
    "is_day": true,
    "wind_kph": 24,
    "wind_direction": "E"
  },
  "LATI": {
    "id": "LATI",
    "city": "tirana",
    "region": "",
    "country": "al",
    "latitude": 41.416666666667,
    "longitude": 19.716666666667,
    "time": "2015-02-28T22:20:00+01:00",
    "temp": 11,
    "dewpoint": 9,
    "humidity": 88,
    "conditions": "Light Rain",
    "weather_primary_coded": ":L:R",
    "clouds_coded": "BK",
    "is_day": false,
    "wind_kph": 6,
    "wind_direction": "S"
  },
  "UDSG": {
    "id": "UDSG",
    "city": "shirak",
    "region": "",
    "country": "am",
    "latitude": 40.75,
    "longitude": 43.866666666667,
    "time": "2015-03-01T01:00:00+04:00",
    "temp": -1,
    "dewpoint": -1,
    "humidity": 100,
    "conditions": "Freezing Fog",
    "weather_primary_coded": "::ZF",
    "clouds_coded": "OV",
    "is_day": false,
    "wind_kph": 0,
    "wind_direction": "N"
  },
  "UDYZ": {
    "id": "UDYZ",
    "city": "zvartnots",
    "region": "",
    "country": "am",
    "latitude": 40.15,
    "longitude": 44.4,
    "time": "2015-03-01T01:00:00+04:00",
    "temp": 5,
    "dewpoint": 0,
    "humidity": 70,
    "conditions": "Mostly Cloudy",
    "weather_primary_coded": "::BK",
    "clouds_coded": "BK",
    "is_day": false,
    "wind_kph": 4,
    "wind_direction": "N"
  },
  "FNMA": {
    "id": "FNMA",
    "city": "malange",
    "region": "",
    "country": "ao",
    "latitude": -9.55,
    "longitude": 16.366666666667,
    "time": "2015-02-28T17:00:00+01:00",
    "temp": 26,
    "dewpoint": 23,
    "humidity": 84,
    "conditions": "Partly Cloudy",
    "weather_primary_coded": "::SC",
    "clouds_coded": "SC",
    "is_day": true,
    "wind_kph": 11,
    "wind_direction": "WNW"
  },
  "FNCA": {
    "id": "FNCA",
    "city": "cabinda",
    "region": "",
    "country": "ao",
    "latitude": -5.5333333333333,
    "longitude": 12.166666666667,
    "time": "2015-02-28T17:00:00+01:00",
    "temp": 30,
    "dewpoint": 25,
    "humidity": 75,
    "conditions": "Mostly Cloudy",
    "weather_primary_coded": "::BK",
    "clouds_coded": "BK",
    "is_day": true,
    "wind_kph": 13,
    "wind_direction": "SSW"
  },
  "FNBG": {
    "id": "FNBG",
    "city": "benguela/monbaca",
    "region": "",
    "country": "ao",
    "latitude": -12.616666666667,
    "longitude": 13.4,
    "time": "2015-02-28T18:00:00+01:00",
    "temp": 30,
    "dewpoint": 23,
    "humidity": 66,
    "conditions": "Mostly Cloudy",
    "weather_primary_coded": "::BK",
    "clouds_coded": "BK",
    "is_day": true,
    "wind_kph": 22,
    "wind_direction": "W"
  },
  "FNLU": {
    "id": "FNLU",
    "city": "luanda/4 de feve",
    "region": "",
    "country": "ao",
    "latitude": -8.8333333333333,
    "longitude": 13.216666666667,
    "time": "2015-02-28T22:00:00+01:00",
    "temp": 27,
    "dewpoint": 24,
    "humidity": 84,
    "conditions": "Mostly Clear",
    "weather_primary_coded": "::FW",
    "clouds_coded": "FW",
    "is_day": false,
    "wind_kph": 11,
    "wind_direction": "S"
  },
  "NZSP": {
    "id": "NZSP",
    "city": "amundsen-scott",
    "region": "",
    "country": "aq",
    "latitude": -89.983333333333,
    "longitude": 179.98333333333,
    "time": "2015-03-01T06:50:00+13:00",
    "temp": -53,
    "dewpoint": null,
    "humidity": null,
    "conditions": "Mostly Clear",
    "weather_primary_coded": "::FW",
    "clouds_coded": "FW",
    "is_day": false,
    "wind_kph": 15,
    "wind_direction": "E"
  },
  "NZCM": {
    "id": "NZCM",
    "city": "williams field",
    "region": "",
    "country": "aq",
    "latitude": -77.866666666667,
    "longitude": 166.96666666667,
    "time": "2015-03-01T09:55:00+13:00",
    "temp": -11,
    "dewpoint": -21,
    "humidity": 44,
    "conditions": "Mostly Cloudy",
    "weather_primary_coded": "::BK",
    "clouds_coded": "BK",
    "is_day": true,
    "wind_kph": 15,
    "wind_direction": "ESE"
  },
  "SASA": {
    "id": "SASA",
    "city": "salta airport",
    "region": "",
    "country": "ar",
    "latitude": -24.85,
    "longitude": -65.466666666667,
    "time": "2015-02-28T15:00:00-03:00",
    "temp": 23,
    "dewpoint": 18,
    "humidity": 74,
    "conditions": "Cloudy",
    "weather_primary_coded": "::OV",
    "clouds_coded": "OV",
    "is_day": true,
    "wind_kph": 7,
    "wind_direction": "NNW"
  },
  "SAZS": {
    "id": "SAZS",
    "city": "san carlos baril",
    "region": "",
    "country": "ar",
    "latitude": -41.133333333333,
    "longitude": -71.166666666667,
    "time": "2015-02-28T17:00:00-03:00",
    "temp": 29,
    "dewpoint": 6,
    "humidity": 23,
    "conditions": "Mostly Sunny",
    "weather_primary_coded": "::FW",
    "clouds_coded": "FW",
    "is_day": true,
    "wind_kph": 30,
    "wind_direction": "NW"
  },
  "SARE": {
    "id": "SARE",
    "city": "resistencia airp",
    "region": "",
    "country": "ar",
    "latitude": -27.433333333333,
    "longitude": -59.033333333333,
    "time": "2015-02-28T17:00:00-03:00",
    "temp": 32,
    "dewpoint": 23,
    "humidity": 59,
    "conditions": "Partly Cloudy",
    "weather_primary_coded": "::SC",
    "clouds_coded": "SC",
    "is_day": true,
    "wind_kph": 6,
    "wind_direction": "ESE"
  },
  "SADF": {
    "id": "SADF",
    "city": "san fernando",
    "region": "",
    "country": "ar",
    "latitude": -34.45,
    "longitude": -58.583333333333,
    "time": "2015-02-28T17:00:00-03:00",
    "temp": 24,
    "dewpoint": 13,
    "humidity": 50,
    "conditions": "Mostly Sunny",
    "weather_primary_coded": "::FW",
    "clouds_coded": "FW",
    "is_day": true,
    "wind_kph": 11,
    "wind_direction": "NE"
  },
  "SAWG": {
    "id": "SAWG",
    "city": "rio gallegos arp",
    "region": "",
    "country": "ar",
    "latitude": -51.616666666667,
    "longitude": -69.316666666667,
    "time": "2015-02-28T18:00:00-03:00",
    "temp": 21,
    "dewpoint": -2,
    "humidity": 21,
    "conditions": "Mostly Sunny",
    "weather_primary_coded": "::FW",
    "clouds_coded": "FW",
    "is_day": true,
    "wind_kph": 9,
    "wind_direction": "WSW"
  },
  "SAWH": {
    "id": "SAWH",
    "city": "ushuaia (arg-nav",
    "region": "",
    "country": "ar",
    "latitude": -54.85,
    "longitude": -68.3,
    "time": "2015-02-28T18:00:00-03:00",
    "temp": 10,
    "dewpoint": 5,
    "humidity": 71,
    "conditions": "Mostly Cloudy",
    "weather_primary_coded": "::BK",
    "clouds_coded": "BK",
    "is_day": true,
    "wind_kph": 39,
    "wind_direction": "WSW"
  },
  "SAEZ": {
    "id": "SAEZ",
    "city": "buenos aires/eze",
    "region": "",
    "country": "ar",
    "latitude": -34.816666666667,
    "longitude": -58.516666666667,
    "time": "2015-02-28T18:00:00-03:00",
    "temp": 25,
    "dewpoint": 9,
    "humidity": 36,
    "conditions": "Mostly Sunny",
    "weather_primary_coded": "::FW",
    "clouds_coded": "FW",
    "is_day": true,
    "wind_kph": 9,
    "wind_direction": "ENE"
  },
  "SARC": {
    "id": "SARC",
    "city": "corrientes airpo",
    "region": "",
    "country": "ar",
    "latitude": -27.433333333333,
    "longitude": -58.766666666667,
    "time": "2015-02-28T18:00:00-03:00",
    "temp": 31,
    "dewpoint": 23,
    "humidity": 62,
    "conditions": "Partly Cloudy",
    "weather_primary_coded": "::SC",
    "clouds_coded": "SC",
    "is_day": true,
    "wind_kph": 4,
    "wind_direction": "E"
  },
  "SARI": {
    "id": "SARI",
    "city": "iguazu/cataratas",
    "region": "",
    "country": "ar",
    "latitude": -25.716666666667,
    "longitude": -54.466666666667,
    "time": "2015-02-28T18:00:00-03:00",
    "temp": 32,
    "dewpoint": 22,
    "humidity": 55,
    "conditions": "Partly Cloudy",
    "weather_primary_coded": "::SC",
    "clouds_coded": "SC",
    "is_day": true,
    "wind_kph": 9,
    "wind_direction": "S"
  },
  "SARP": {
    "id": "SARP",
    "city": "posadas airport",
    "region": "",
    "country": "ar",
    "latitude": -27.383333333333,
    "longitude": -55.966666666667,
    "time": "2015-02-28T18:00:00-03:00",
    "temp": 33,
    "dewpoint": 23,
    "humidity": 56,
    "conditions": "Mostly Sunny",
    "weather_primary_coded": "::FW",
    "clouds_coded": "FW",
    "is_day": true,
    "wind_kph": 13,
    "wind_direction": "E"
  },
  "SARF": {
    "id": "SARF",
    "city": "formosa airport",
    "region": "",
    "country": "ar",
    "latitude": -26.216666666667,
    "longitude": -58.216666666667,
    "time": "2015-02-28T18:00:00-03:00",
    "temp": 30,
    "dewpoint": 24,
    "humidity": 70,
    "conditions": "Mostly Sunny",
    "weather_primary_coded": "::FW",
    "clouds_coded": "FW",
    "is_day": true,
    "wind_kph": 11,
    "wind_direction": "SE"
  },
  "SAZM": {
    "id": "SAZM",
    "city": "mar del plata ar",
    "region": "",
    "country": "ar",
    "latitude": -37.916666666667,
    "longitude": -57.566666666667,
    "time": "2015-02-28T18:00:00-03:00",
    "temp": 26,
    "dewpoint": 7,
    "humidity": 30,
    "conditions": "Mostly Sunny",
    "weather_primary_coded": "::FW",
    "clouds_coded": "FW",
    "is_day": true,
    "wind_kph": 15,
    "wind_direction": "N"
  },
  "SARL": {
    "id": "SARL",
    "city": "paso de los libr",
    "region": "",
    "country": "ar",
    "latitude": -29.666666666667,
    "longitude": -57.133333333333,
    "time": "2015-02-28T18:00:00-03:00",
    "temp": 29,
    "dewpoint": 19,
    "humidity": 55,
    "conditions": "Mostly Sunny",
    "weather_primary_coded": "::FW",
    "clouds_coded": "FW",
    "is_day": true,
    "wind_kph": 17,
    "wind_direction": "E"
  },
  "SAVC": {
    "id": "SAVC",
    "city": "comodoro rivadav",
    "region": "",
    "country": "ar",
    "latitude": -45.766666666667,
    "longitude": -67.466666666667,
    "time": "2015-02-28T18:00:00-03:00",
    "temp": 27,
    "dewpoint": 7,
    "humidity": 28,
    "conditions": "Mostly Sunny",
    "weather_primary_coded": "::FW",
    "clouds_coded": "FW",
    "is_day": true,
    "wind_kph": 28,
    "wind_direction": "NE"
  },
  "SAME": {
    "id": "SAME",
    "city": "mendoza/el plume",
    "region": "",
    "country": "ar",
    "latitude": -32.816666666667,
    "longitude": -68.766666666667,
    "time": "2015-02-28T18:00:00-03:00",
    "temp": 23,
    "dewpoint": 15,
    "humidity": 61,
    "conditions": "Partly Cloudy",
    "weather_primary_coded": "::SC",
    "clouds_coded": "SC",
    "is_day": true,
    "wind_kph": 9,
    "wind_direction": "S"
  },
  "SAAR": {
    "id": "SAAR",
    "city": "rosario airport",
    "region": "",
    "country": "ar",
    "latitude": -32.916666666667,
    "longitude": -60.766666666667,
    "time": "2015-02-28T18:00:00-03:00",
    "temp": 25,
    "dewpoint": 19,
    "humidity": 69,
    "conditions": "Mostly Cloudy",
    "weather_primary_coded": "::BK",
    "clouds_coded": "BK",
    "is_day": true,
    "wind_kph": 11,
    "wind_direction": "ESE"
  },
  "SACO": {
    "id": "SACO",
    "city": "cordoba airport",
    "region": "",
    "country": "ar",
    "latitude": -31.316666666667,
    "longitude": -64.216666666667,
    "time": "2015-02-28T18:00:00-03:00",
    "temp": 19,
    "dewpoint": 18,
    "humidity": 94,
    "conditions": "Cloudy",
    "weather_primary_coded": "::OV",
    "clouds_coded": "OV",
    "is_day": true,
    "wind_kph": 6,
    "wind_direction": "SE"
  },
  "SANT": {
    "id": "SANT",
    "city": "tucuman/teniente",
    "region": "",
    "country": "ar",
    "latitude": -26.85,
    "longitude": -65.083333333333,
    "time": "2015-02-28T18:00:00-03:00",
    "temp": 23,
    "dewpoint": 21,
    "humidity": 89,
    "conditions": "Cloudy",
    "weather_primary_coded": ":L:DZBR",
    "clouds_coded": "OV",
    "is_day": true,
    "wind_kph": 0,
    "wind_direction": "N"
  },
  "SAOC": {
    "id": "SAOC",
    "city": "rio cuarto airpo",
    "region": "",
    "country": "ar",
    "latitude": -33.116666666667,
    "longitude": -64.266666666667,
    "time": "2015-02-28T18:00:00-03:00",
    "temp": 16,
    "dewpoint": 16,
    "humidity": 100,
    "conditions": "Scattered Storms",
    "weather_primary_coded": "::T",
    "clouds_coded": "BK",
    "is_day": true,
    "wind_kph": 17,
    "wind_direction": "E"
  },
  "SAWE": {
    "id": "SAWE",
    "city": "rio grande airpo",
    "region": "",
    "country": "ar",
    "latitude": -53.783333333333,
    "longitude": -67.75,
    "time": "2015-02-28T18:00:00-03:00",
    "temp": 17,
    "dewpoint": 10,
    "humidity": 64,
    "conditions": "Mostly Sunny",
    "weather_primary_coded": "::FW",
    "clouds_coded": "FW",
    "is_day": true,
    "wind_kph": 31,
    "wind_direction": "WSW"
  },
  "SABE": {
    "id": "SABE",
    "city": "aeroparque(civ/m",
    "region": "",
    "country": "ar",
    "latitude": -34.566666666667,
    "longitude": -58.416666666667,
    "time": "2015-02-28T18:00:00-03:00",
    "temp": 22,
    "dewpoint": 14,
    "humidity": 61,
    "conditions": "Mostly Sunny",
    "weather_primary_coded": "::FW",
    "clouds_coded": "FW",
    "is_day": true,
    "wind_kph": 13,
    "wind_direction": "ESE"
  },
  "SAZN": {
    "id": "SAZN",
    "city": "neuquen airport",
    "region": "",
    "country": "ar",
    "latitude": -38.95,
    "longitude": -68.15,
    "time": "2015-02-28T18:00:00-03:00",
    "temp": 29,
    "dewpoint": 14,
    "humidity": 40,
    "conditions": "Partly Cloudy",
    "weather_primary_coded": "::SC",
    "clouds_coded": "SC",
    "is_day": true,
    "wind_kph": 7,
    "wind_direction": "NNE"
  },
  "SASJ": {
    "id": "SASJ",
    "city": "jujuy airport",
    "region": "",
    "country": "ar",
    "latitude": -24.366666666667,
    "longitude": -65.1,
    "time": "2015-02-28T18:00:00-03:00",
    "temp": 26,
    "dewpoint": 20,
    "humidity": 70,
    "conditions": "Partly Cloudy",
    "weather_primary_coded": "::SC",
    "clouds_coded": "SC",
    "is_day": true,
    "wind_kph": 7,
    "wind_direction": "SE"
  },
  "SAOU": {
    "id": "SAOU",
    "city": "san luis airport",
    "region": "",
    "country": "ar",
    "latitude": -33.266666666667,
    "longitude": -66.333333333333,
    "time": "2015-02-28T18:10:00-03:00",
    "temp": 20,
    "dewpoint": 17,
    "humidity": 83,
    "conditions": "Drizzle",
    "weather_primary_coded": "::L",
    "clouds_coded": "OV",
    "is_day": true,
    "wind_kph": 20,
    "wind_direction": "E"
  },
  "LOAV": {
    "id": "LOAV",
    "city": "voeslau-kottingb",
    "region": "",
    "country": "at",
    "latitude": 47.966666666667,
    "longitude": 16.266666666667,
    "time": "2015-02-28T18:00:00+01:00",
    "temp": 6,
    "dewpoint": -1,
    "humidity": 61,
    "conditions": "Mostly Clear",
    "weather_primary_coded": "::FW",
    "clouds_coded": "FW",
    "is_day": false,
    "wind_kph": 9,
    "wind_direction": "W"
  },
  "LOWZ": {
    "id": "LOWZ",
    "city": "zell am see",
    "region": "",
    "country": "at",
    "latitude": 47.3,
    "longitude": 12.783333333333,
    "time": "2015-02-28T18:00:00+01:00",
    "temp": 3,
    "dewpoint": -1,
    "humidity": 75,
    "conditions": "Mostly Clear",
    "weather_primary_coded": "::FW",
    "clouds_coded": "FW",
    "is_day": false,
    "wind_kph": 6,
    "wind_direction": "NNE"
  },
  "LOXZ": {
    "id": "LOXZ",
    "city": "zeltweg (mil)",
    "region": "",
    "country": "at",
    "latitude": 47.2,
    "longitude": 14.75,
    "time": "2015-02-28T21:50:00+01:00",
    "temp": 3,
    "dewpoint": -2,
    "humidity": 70,
    "conditions": "Mostly Clear",
    "weather_primary_coded": "::FW",
    "clouds_coded": "FW",
    "is_day": false,
    "wind_kph": 6,
    "wind_direction": "N"
  },
  "LOWI": {
    "id": "LOWI",
    "city": "innsbruck airpor",
    "region": "",
    "country": "at",
    "latitude": 47.266666666667,
    "longitude": 11.333333333333,
    "time": "2015-02-28T22:20:00+01:00",
    "temp": -1,
    "dewpoint": -1,
    "humidity": 100,
    "conditions": "Partly Cloudy",
    "weather_primary_coded": "::SC",
    "clouds_coded": "SC",
    "is_day": false,
    "wind_kph": 6,
    "wind_direction": "SW"
  },
  "LOWK": {
    "id": "LOWK",
    "city": "klagenfurt(civ/m",
    "region": "",
    "country": "at",
    "latitude": 46.65,
    "longitude": 14.316666666667,
    "time": "2015-02-28T22:20:00+01:00",
    "temp": 2,
    "dewpoint": 0,
    "humidity": 87,
    "conditions": "Mostly Clear",
    "weather_primary_coded": "::FW",
    "clouds_coded": "FW",
    "is_day": false,
    "wind_kph": 4,
    "wind_direction": "NNE"
  },
  "LOWS": {
    "id": "LOWS",
    "city": "salzburg airport",
    "region": "",
    "country": "at",
    "latitude": 47.783333333333,
    "longitude": 13.016666666667,
    "time": "2015-02-28T22:20:00+01:00",
    "temp": 0,
    "dewpoint": -1,
    "humidity": 93,
    "conditions": "Partly Cloudy",
    "weather_primary_coded": "::SC",
    "clouds_coded": "SC",
    "is_day": false,
    "wind_kph": 2,
    "wind_direction": "N"
  },
  "LOWG": {
    "id": "LOWG",
    "city": "graz (mil/civ)",
    "region": "",
    "country": "at",
    "latitude": 47,
    "longitude": 15.416666666667,
    "time": "2015-02-28T22:20:00+01:00",
    "temp": 5,
    "dewpoint": 0,
    "humidity": 70,
    "conditions": "Mostly Cloudy",
    "weather_primary_coded": "::BK",
    "clouds_coded": "BK",
    "is_day": false,
    "wind_kph": 0,
    "wind_direction": "N"
  },
  "LOWW": {
    "id": "LOWW",
    "city": "vienna/schwechat",
    "region": "",
    "country": "at",
    "latitude": 48.116666666667,
    "longitude": 16.566666666667,
    "time": "2015-02-28T22:20:00+01:00",
    "temp": 3,
    "dewpoint": -1,
    "humidity": 75,
    "conditions": "Mostly Clear",
    "weather_primary_coded": "::FW",
    "clouds_coded": "FW",
    "is_day": false,
    "wind_kph": 9,
    "wind_direction": "W"
  },
  "LOWL": {
    "id": "LOWL",
    "city": "linz (civ/mil)",
    "region": "",
    "country": "at",
    "latitude": 48.216666666667,
    "longitude": 14.183333333333,
    "time": "2015-02-28T22:20:00+01:00",
    "temp": 0,
    "dewpoint": -1,
    "humidity": 93,
    "conditions": "Partly Cloudy",
    "weather_primary_coded": "::SC",
    "clouds_coded": "SC",
    "is_day": false,
    "wind_kph": 2,
    "wind_direction": "N"
  },
  "YKRY": {
    "id": "YKRY",
    "city": "kingaroy arpt",
    "region": "",
    "country": "au",
    "latitude": -26.566666666667,
    "longitude": 151.83333333333,
    "time": "2015-03-01T07:00:00+10:00",
    "temp": 21,
    "dewpoint": 19,
    "humidity": 88,
    "conditions": "Mostly Sunny",
    "weather_primary_coded": "::FW",
    "clouds_coded": "FW",
    "is_day": true,
    "wind_kph": 6,
    "wind_direction": "E"
  },
  "YNTN": {
    "id": "YNTN",
    "city": "normanton",
    "region": "",
    "country": "au",
    "latitude": -17.683333333333,
    "longitude": 141.06666666667,
    "time": "2015-03-01T07:00:00+10:00",
    "temp": 27,
    "dewpoint": 27,
    "humidity": 100,
    "conditions": "Mostly Sunny",
    "weather_primary_coded": "::FW",
    "clouds_coded": "FW",
    "is_day": true,
    "wind_kph": 11,
    "wind_direction": "NE"
  },
  "YHUG": {
    "id": "YHUG",
    "city": "hughenden arpt",
    "region": "",
    "country": "au",
    "latitude": -20.816666666667,
    "longitude": 144.23333333333,
    "time": "2015-03-01T07:00:00+10:00",
    "temp": 26,
    "dewpoint": 20,
    "humidity": 70,
    "conditions": "Mostly Sunny",
    "weather_primary_coded": "::FW",
    "clouds_coded": "FW",
    "is_day": true,
    "wind_kph": 0,
    "wind_direction": "N"
  },
  "YFRT": {
    "id": "YFRT",
    "city": "forrest",
    "region": "",
    "country": "au",
    "latitude": -30.833333333333,
    "longitude": 128.11666666667,
    "time": "2015-03-01T05:00:00+08:00",
    "temp": 14,
    "dewpoint": 13,
    "humidity": 94,
    "conditions": "Mostly Clear",
    "weather_primary_coded": "::FW",
    "clouds_coded": "FW",
    "is_day": false,
    "wind_kph": 13,
    "wind_direction": "SSE"
  },
  "YWGT": {
    "id": "YWGT",
    "city": "wangaratta arp",
    "region": "",
    "country": "au",
    "latitude": -36.416666666667,
    "longitude": 146.3,
    "time": "2015-03-01T08:00:00+11:00",
    "temp": 19,
    "dewpoint": 16,
    "humidity": 83,
    "conditions": "Mostly Sunny",
    "weather_primary_coded": "::FW",
    "clouds_coded": "FW",
    "is_day": true,
    "wind_kph": 19,
    "wind_direction": "SW"
  },
  "YCAS": {
    "id": "YCAS",
    "city": "casino airport",
    "region": "",
    "country": "au",
    "latitude": -28.883333333333,
    "longitude": 153.06666666667,
    "time": "2015-03-01T08:00:00+11:00",
    "temp": 22,
    "dewpoint": 20,
    "humidity": 88,
    "conditions": "Mostly Sunny",
    "weather_primary_coded": "::FW",
    "clouds_coded": "FW",
    "is_day": true,
    "wind_kph": 7,
    "wind_direction": "NNW"
  },
  "YTEF": {
    "id": "YTEF",
    "city": "telfer airport",
    "region": "",
    "country": "au",
    "latitude": -21.716666666667,
    "longitude": 122.23333333333,
    "time": "2015-03-01T05:00:00+08:00",
    "temp": 26,
    "dewpoint": 24,
    "humidity": 89,
    "conditions": "Mostly Clear",
    "weather_primary_coded": "::FW",
    "clouds_coded": "FW",
    "is_day": false,
    "wind_kph": 9,
    "wind_direction": "ESE"
  },
  "YCBA": {
    "id": "YCBA",
    "city": "cobar airport",
    "region": "",
    "country": "au",
    "latitude": -31.533333333333,
    "longitude": 145.8,
    "time": "2015-03-01T08:00:00+11:00",
    "temp": 27,
    "dewpoint": 15,
    "humidity": 48,
    "conditions": "Mostly Sunny",
    "weather_primary_coded": "::FW",
    "clouds_coded": "FW",
    "is_day": true,
    "wind_kph": 7,
    "wind_direction": "W"
  },
  "YCBB": {
    "id": "YCBB",
    "city": "coonabarabran",
    "region": "",
    "country": "au",
    "latitude": -31.333333333333,
    "longitude": 149.26666666667,
    "time": "2015-03-01T08:00:00+11:00",
    "temp": 22,
    "dewpoint": 18,
    "humidity": 78,
    "conditions": "Mostly Sunny",
    "weather_primary_coded": "::FW",
    "clouds_coded": "FW",
    "is_day": true,
    "wind_kph": 28,
    "wind_direction": "N"
  },
  "YCNM": {
    "id": "YCNM",
    "city": "coonamble",
    "region": "",
    "country": "au",
    "latitude": -30.983333333333,
    "longitude": 148.38333333333,
    "time": "2015-03-01T08:00:00+11:00",
    "temp": 26,
    "dewpoint": 19,
    "humidity": 65,
    "conditions": "Mostly Sunny",
    "weather_primary_coded": "::FW",
    "clouds_coded": "FW",
    "is_day": true,
    "wind_kph": 20,
    "wind_direction": "NE"
  },
  "YCCY": {
    "id": "YCCY",
    "city": "cloncurry",
    "region": "",
    "country": "au",
    "latitude": -20.666666666667,
    "longitude": 140.5,
    "time": "2015-03-01T07:00:00+10:00",
    "temp": 26,
    "dewpoint": 20,
    "humidity": 70,
    "conditions": "Mostly Sunny",
    "weather_primary_coded": "::FW",
    "clouds_coded": "FW",
    "is_day": true,
    "wind_kph": 17,
    "wind_direction": "S"
  },
  "YRMD": {
    "id": "YRMD",
    "city": "richmond",
    "region": "",
    "country": "au",
    "latitude": -20.7,
    "longitude": 143.11666666667,
    "time": "2015-03-01T07:00:00+10:00",
    "temp": 27,
    "dewpoint": 21,
    "humidity": 70,
    "conditions": "Mostly Sunny",
    "weather_primary_coded": "::FW",
    "clouds_coded": "FW",
    "is_day": true,
    "wind_kph": 15,
    "wind_direction": "NNW"
  },
  "YLEC": {
    "id": "YLEC",
    "city": "leigh creek",
    "region": "",
    "country": "au",
    "latitude": -30.6,
    "longitude": 138.43333333333,
    "time": "2015-03-01T07:30:00+10:30",
    "temp": 19,
    "dewpoint": 11,
    "humidity": 60,
    "conditions": "Mostly Sunny",
    "weather_primary_coded": "::FW",
    "clouds_coded": "FW",
    "is_day": true,
    "wind_kph": 35,
    "wind_direction": "SSW"
  },
  "YSRI": {
    "id": "YSRI",
    "city": "richmond (aus-af",
    "region": "",
    "country": "au",
    "latitude": -33.6,
    "longitude": 150.76666666667,
    "time": "2015-03-01T08:00:00+11:00",
    "temp": 19,
    "dewpoint": 19,
    "humidity": 100,
    "conditions": "Partly Cloudy",
    "weather_primary_coded": "::SC",
    "clouds_coded": "SC",
    "is_day": true,
    "wind_kph": 0,
    "wind_direction": "N"
  },
  "YBWX": {
    "id": "YBWX",
    "city": "barrow island",
    "region": "",
    "country": "au",
    "latitude": -20.883333333333,
    "longitude": 115.4,
    "time": "2015-03-01T05:00:00+08:00",
    "temp": 26,
    "dewpoint": 22,
    "humidity": 79,
    "conditions": "Mostly Clear",
    "weather_primary_coded": "::FW",
    "clouds_coded": "FW",
    "is_day": false,
    "wind_kph": 19,
    "wind_direction": "WNW"
  },
  "YBDV": {
    "id": "YBDV",
    "city": "birdsville",
    "region": "",
    "country": "au",
    "latitude": -25.9,
    "longitude": 139.35,
    "time": "2015-03-01T07:00:00+10:00",
    "temp": 28,
    "dewpoint": 3,
    "humidity": 20,
    "conditions": "Mostly Sunny",
    "weather_primary_coded": "::FW",
    "clouds_coded": "FW",
    "is_day": true,
    "wind_kph": 9,
    "wind_direction": "SSW"
  },
  "YDBY": {
    "id": "YDBY",
    "city": "derby",
    "region": "",
    "country": "au",
    "latitude": -17.366666666667,
    "longitude": 123.66666666667,
    "time": "2015-03-01T05:00:00+08:00",
    "temp": 25,
    "dewpoint": 24,
    "humidity": 94,
    "conditions": "Mostly Clear",
    "weather_primary_coded": "::FW",
    "clouds_coded": "FW",
    "is_day": false,
    "wind_kph": 0,
    "wind_direction": "N"
  },
  "YNAR": {
    "id": "YNAR",
    "city": "narrandera",
    "region": "",
    "country": "au",
    "latitude": -34.7,
    "longitude": 146.51666666667,
    "time": "2015-03-01T08:00:00+11:00",
    "temp": 23,
    "dewpoint": 15,
    "humidity": 61,
    "conditions": "Mostly Sunny",
    "weather_primary_coded": "::FW",
    "clouds_coded": "FW",
    "is_day": true,
    "wind_kph": 24,
    "wind_direction": "SW"
  },
  "YPXM": {
    "id": "YPXM",
    "city": "christmas isl (p",
    "region": "",
    "country": "au",
    "latitude": -10.45,
    "longitude": 105.66666666667,
    "time": "2015-03-01T04:00:00+07:00",
    "temp": 22,
    "dewpoint": 21,
    "humidity": 94,
    "conditions": "Mostly Clear",
    "weather_primary_coded": "::FW",
    "clouds_coded": "FW",
    "is_day": false,
    "wind_kph": 2,
    "wind_direction": "SSW"
  },
  "YMHB": {
    "id": "YMHB",
    "city": "hobart/tasmania",
    "region": "",
    "country": "au",
    "latitude": -42.816666666667,
    "longitude": 147.51666666667,
    "time": "2015-03-01T08:00:00+11:00",
    "temp": 14,
    "dewpoint": 9,
    "humidity": 72,
    "conditions": "Mostly Sunny",
    "weather_primary_coded": "::FW",
    "clouds_coded": "FW",
    "is_day": true,
    "wind_kph": 13,
    "wind_direction": "W"
  },
  "YSCB": {
    "id": "YSCB",
    "city": "canberra (civ/mi",
    "region": "",
    "country": "au",
    "latitude": -35.283333333333,
    "longitude": 149.16666666667,
    "time": "2015-03-01T08:00:00+11:00",
    "temp": 17,
    "dewpoint": 14,
    "humidity": 83,
    "conditions": "Mostly Sunny",
    "weather_primary_coded": "::FW",
    "clouds_coded": "FW",
    "is_day": true,
    "wind_kph": 7,
    "wind_direction": "SSW"
  },
  "YWLM": {
    "id": "YWLM",
    "city": "williamtown arp",
    "region": "",
    "country": "au",
    "latitude": -32.8,
    "longitude": 151.83333333333,
    "time": "2015-03-01T08:00:00+11:00",
    "temp": 22,
    "dewpoint": 21,
    "humidity": 94,
    "conditions": "Mostly Sunny",
    "weather_primary_coded": "::FW",
    "clouds_coded": "FW",
    "is_day": true,
    "wind_kph": 7,
    "wind_direction": "NNW"
  },
  "YSWG": {
    "id": "YSWG",
    "city": "wagga wagga(cv/m",
    "region": "",
    "country": "au",
    "latitude": -35.133333333333,
    "longitude": 147.46666666667,
    "time": "2015-03-01T08:00:00+11:00",
    "temp": 21,
    "dewpoint": 14,
    "humidity": 64,
    "conditions": "Mostly Sunny",
    "weather_primary_coded": "::FW",
    "clouds_coded": "FW",
    "is_day": true,
    "wind_kph": 11,
    "wind_direction": "WNW"
  },
  "YPDN": {
    "id": "YPDN",
    "city": "darwin (civ/mil)",
    "region": "",
    "country": "au",
    "latitude": -12.416666666667,
    "longitude": 130.9,
    "time": "2015-03-01T06:30:00+09:30",
    "temp": 28,
    "dewpoint": 25,
    "humidity": 84,
    "conditions": "Partly Cloudy",
    "weather_primary_coded": "::SC",
    "clouds_coded": "SC",
    "is_day": false,
    "wind_kph": 11,
    "wind_direction": "W"
  },
  "YLIS": {
    "id": "YLIS",
    "city": "lismore arpt",
    "region": "",
    "country": "au",
    "latitude": -28.833333333333,
    "longitude": 153.26666666667,
    "time": "2015-03-01T08:00:00+11:00",
    "temp": 21,
    "dewpoint": 21,
    "humidity": 100,
    "conditions": "Mostly Sunny",
    "weather_primary_coded": "::FW",
    "clouds_coded": "FW",
    "is_day": true,
    "wind_kph": 9,
    "wind_direction": "N"
  },
  "YMLT": {
    "id": "YMLT",
    "city": "launceston airpo",
    "region": "",
    "country": "au",
    "latitude": -41.516666666667,
    "longitude": 147.18333333333,
    "time": "2015-03-01T08:00:00+11:00",
    "temp": 12,
    "dewpoint": 10,
    "humidity": 88,
    "conditions": "Mostly Sunny",
    "weather_primary_coded": "::FW",
    "clouds_coded": "FW",
    "is_day": true,
    "wind_kph": 0,
    "wind_direction": "N"
  },
  "YBHM": {
    "id": "YBHM",
    "city": "hamilton island",
    "region": "",
    "country": "au",
    "latitude": -20.35,
    "longitude": 148.95,
    "time": "2015-03-01T07:00:00+10:00",
    "temp": 26,
    "dewpoint": 22,
    "humidity": 79,
    "conditions": "Mostly Sunny",
    "weather_primary_coded": "::FW",
    "clouds_coded": "FW",
    "is_day": true,
    "wind_kph": 0,
    "wind_direction": "N"
  },
  "YSTW": {
    "id": "YSTW",
    "city": "tamworth airport",
    "region": "",
    "country": "au",
    "latitude": -31.066666666667,
    "longitude": 150.85,
    "time": "2015-03-01T08:00:00+11:00",
    "temp": 23,
    "dewpoint": 17,
    "humidity": 69,
    "conditions": "Mostly Sunny",
    "weather_primary_coded": "::FW",
    "clouds_coded": "FW",
    "is_day": true,
    "wind_kph": 9,
    "wind_direction": "SE"
  },
  "YMEK": {
    "id": "YMEK",
    "city": "meekatharra arpt",
    "region": "",
    "country": "au",
    "latitude": -26.616666666667,
    "longitude": 118.55,
    "time": "2015-03-01T05:00:00+08:00",
    "temp": 23,
    "dewpoint": 21,
    "humidity": 89,
    "conditions": "Mostly Clear",
    "weather_primary_coded": "::FW",
    "clouds_coded": "FW",
    "is_day": false,
    "wind_kph": 20,
    "wind_direction": "NE"
  },
  "YABA": {
    "id": "YABA",
    "city": "albany airport",
    "region": "",
    "country": "au",
    "latitude": -34.933333333333,
    "longitude": 117.8,
    "time": "2015-03-01T05:00:00+08:00",
    "temp": 10,
    "dewpoint": 10,
    "humidity": 100,
    "conditions": "Mostly Cloudy",
    "weather_primary_coded": "::BK",
    "clouds_coded": "BK",
    "is_day": false,
    "wind_kph": 0,
    "wind_direction": "N"
  },
  "YSSY": {
    "id": "YSSY",
    "city": "sydney intl airp",
    "region": "",
    "country": "au",
    "latitude": -33.95,
    "longitude": 151.16666666667,
    "time": "2015-03-01T08:00:00+11:00",
    "temp": 24,
    "dewpoint": 19,
    "humidity": 74,
    "conditions": "Mostly Sunny",
    "weather_primary_coded": "::FW",
    "clouds_coded": "FW",
    "is_day": true,
    "wind_kph": 11,
    "wind_direction": "NW"
  },
  "YMTG": {
    "id": "YMTG",
    "city": "mount gambier",
    "region": "",
    "country": "au",
    "latitude": -37.75,
    "longitude": 140.78333333333,
    "time": "2015-03-01T07:30:00+10:30",
    "temp": 13,
    "dewpoint": 11,
    "humidity": 88,
    "conditions": "Mostly Sunny",
    "weather_primary_coded": "::FW",
    "clouds_coded": "FW",
    "is_day": true,
    "wind_kph": 11,
    "wind_direction": "SW"
  },
  "YSNW": {
    "id": "YSNW",
    "city": "nowra (aus-navy)",
    "region": "",
    "country": "au",
    "latitude": -34.95,
    "longitude": 150.51666666667,
    "time": "2015-03-01T08:00:00+11:00",
    "temp": 24,
    "dewpoint": 17,
    "humidity": 65,
    "conditions": "Mostly Sunny",
    "weather_primary_coded": "::FW",
    "clouds_coded": "FW",
    "is_day": true,
    "wind_kph": 11,
    "wind_direction": "W"
  },
  "YPAD": {
    "id": "YPAD",
    "city": "adelaide intl ar",
    "region": "",
    "country": "au",
    "latitude": -34.95,
    "longitude": 138.51666666667,
    "time": "2015-03-01T07:30:00+10:30",
    "temp": 17,
    "dewpoint": 8,
    "humidity": 56,
    "conditions": "Partly Cloudy",
    "weather_primary_coded": "::SC",
    "clouds_coded": "SC",
    "is_day": true,
    "wind_kph": 17,
    "wind_direction": "S"
  },
  "YMEN": {
    "id": "YMEN",
    "city": "melbourne/essend",
    "region": "",
    "country": "au",
    "latitude": -37.716666666667,
    "longitude": 144.9,
    "time": "2015-03-01T08:00:00+11:00",
    "temp": 15,
    "dewpoint": 13,
    "humidity": 88,
    "conditions": "Mostly Sunny",
    "weather_primary_coded": "::FW",
    "clouds_coded": "FW",
    "is_day": true,
    "wind_kph": 17,
    "wind_direction": "W"
  },
  "YPJT": {
    "id": "YPJT",
    "city": "jandakot",
    "region": "",
    "country": "au",
    "latitude": -32.1,
    "longitude": 115.88333333333,
    "time": "2015-03-01T05:00:00+08:00",
    "temp": 17,
    "dewpoint": 11,
    "humidity": 68,
    "conditions": "Mostly Clear",
    "weather_primary_coded": "::FW",
    "clouds_coded": "FW",
    "is_day": false,
    "wind_kph": 15,
    "wind_direction": "E"
  },
  "YMAV": {
    "id": "YMAV",
    "city": "avalon airport",
    "region": "",
    "country": "au",
    "latitude": -38.033333333333,
    "longitude": 144.48333333333,
    "time": "2015-03-01T08:00:00+11:00",
    "temp": 14,
    "dewpoint": 13,
    "humidity": 94,
    "conditions": "Mostly Sunny",
    "weather_primary_coded": "::FW",
    "clouds_coded": "FW",
    "is_day": true,
    "wind_kph": 15,
    "wind_direction": "WNW"
  },
  "YBRK": {
    "id": "YBRK",
    "city": "rockhampton airp",
    "region": "",
    "country": "au",
    "latitude": -23.366666666667,
    "longitude": 150.46666666667,
    "time": "2015-03-01T07:00:00+10:00",
    "temp": 25,
    "dewpoint": 22,
    "humidity": 83,
    "conditions": "Mostly Sunny",
    "weather_primary_coded": "::FW",
    "clouds_coded": "FW",
    "is_day": true,
    "wind_kph": 7,
    "wind_direction": "SE"
  },
  "YBTL": {
    "id": "YBTL",
    "city": "townsville(civ/m",
    "region": "",
    "country": "au",
    "latitude": -19.25,
    "longitude": 146.75,
    "time": "2015-03-01T07:00:00+10:00",
    "temp": 28,
    "dewpoint": 23,
    "humidity": 74,
    "conditions": "Partly Cloudy",
    "weather_primary_coded": "::SC",
    "clouds_coded": "SC",
    "is_day": true,
    "wind_kph": 11,
    "wind_direction": "NE"
  },
  "YAMB": {
    "id": "YAMB",
    "city": "amberley",
    "region": "",
    "country": "au",
    "latitude": -27.633333333333,
    "longitude": 152.71666666667,
    "time": "2015-03-01T07:00:00+10:00",
    "temp": 21,
    "dewpoint": 21,
    "humidity": 100,
    "conditions": "Mostly Sunny",
    "weather_primary_coded": "::FW",
    "clouds_coded": "FW",
    "is_day": true,
    "wind_kph": 0,
    "wind_direction": "N"
  },
  "YPEA": {
    "id": "YPEA",
    "city": "pearce (aus-afb)",
    "region": "",
    "country": "au",
    "latitude": -31.666666666667,
    "longitude": 116.01666666667,
    "time": "2015-03-01T05:00:00+08:00",
    "temp": 18,
    "dewpoint": 12,
    "humidity": 68,
    "conditions": "Mostly Clear",
    "weather_primary_coded": "::FW",
    "clouds_coded": "FW",
    "is_day": false,
    "wind_kph": 13,
    "wind_direction": "SSE"
  },
  "YPLM": {
    "id": "YPLM",
    "city": "learmouth",
    "region": "",
    "country": "au",
    "latitude": -22.216666666667,
    "longitude": 114.06666666667,
    "time": "2015-03-01T05:00:00+08:00",
    "temp": 25,
    "dewpoint": 22,
    "humidity": 83,
    "conditions": "Mostly Clear",
    "weather_primary_coded": "::FW",
    "clouds_coded": "FW",
    "is_day": false,
    "wind_kph": 20,
    "wind_direction": "W"
  },
  "YCFS": {
    "id": "YCFS",
    "city": "coffs harbour",
    "region": "",
    "country": "au",
    "latitude": -30.316666666667,
    "longitude": 153.11666666667,
    "time": "2015-03-01T07:00:00+10:00",
    "temp": 25,
    "dewpoint": 20,
    "humidity": 74,
    "conditions": "Mostly Sunny",
    "weather_primary_coded": "::FW",
    "clouds_coded": "FW",
    "is_day": true,
    "wind_kph": 13,
    "wind_direction": "N"
  },
  "YWHA": {
    "id": "YWHA",
    "city": "whyalla airport",
    "region": "",
    "country": "au",
    "latitude": -33.066666666667,
    "longitude": 137.51666666667,
    "time": "2015-03-01T07:30:00+10:30",
    "temp": 18,
    "dewpoint": 10,
    "humidity": 60,
    "conditions": "Cloudy",
    "weather_primary_coded": "::OV",
    "clouds_coded": "OV",
    "is_day": true,
    "wind_kph": 30,
    "wind_direction": "SSE"
  },
  "YBMA": {
    "id": "YBMA",
    "city": "mount isa airpor",
    "region": "",
    "country": "au",
    "latitude": -20.666666666667,
    "longitude": 139.46666666667,
    "time": "2015-03-01T07:00:00+10:00",
    "temp": 28,
    "dewpoint": 23,
    "humidity": 74,
    "conditions": "Mostly Sunny",
    "weather_primary_coded": "::FW",
    "clouds_coded": "FW",
    "is_day": true,
    "wind_kph": 11,
    "wind_direction": "N"
  },
  "YGTE": {
    "id": "YGTE",
    "city": "groote eylandt",
    "region": "",
    "country": "au",
    "latitude": -13.966666666667,
    "longitude": 136.45,
    "time": "2015-03-01T06:30:00+09:30",
    "temp": 25,
    "dewpoint": 24,
    "humidity": 94,
    "conditions": "Mostly Sunny",
    "weather_primary_coded": "::FW",
    "clouds_coded": "FW",
    "is_day": true,
    "wind_kph": 4,
    "wind_direction": "E"
  },
  "YBNA": {
    "id": "YBNA",
    "city": "ballina byron g.",
    "region": "",
    "country": "au",
    "latitude": -28.833333333333,
    "longitude": 153.56666666667,
    "time": "2015-03-01T08:00:00+11:00",
    "temp": 22,
    "dewpoint": 22,
    "humidity": 100,
    "conditions": "Mostly Sunny",
    "weather_primary_coded": "::FW",
    "clouds_coded": "FW",
    "is_day": true,
    "wind_kph": 0,
    "wind_direction": "N"
  },
  "YBCG": {
    "id": "YBCG",
    "city": "coolangatta aws",
    "region": "",
    "country": "au",
    "latitude": -28.166666666667,
    "longitude": 153.5,
    "time": "2015-03-01T08:00:00+11:00",
    "temp": 22,
    "dewpoint": 21,
    "humidity": 94,
    "conditions": "Mostly Sunny",
    "weather_primary_coded": "::FW",
    "clouds_coded": "FW",
    "is_day": true,
    "wind_kph": 9,
    "wind_direction": "WSW"
  },
  "YPGV": {
    "id": "YPGV",
    "city": "gove airport",
    "region": "",
    "country": "au",
    "latitude": -12.266666666667,
    "longitude": 136.81666666667,
    "time": "2015-03-01T06:30:00+09:30",
    "temp": 26,
    "dewpoint": 26,
    "humidity": 100,
    "conditions": "Showers Nearby",
    "weather_primary_coded": "VC::RW",
    "clouds_coded": "BK",
    "is_day": true,
    "wind_kph": 0,
    "wind_direction": "N"
  },
  "YMAY": {
    "id": "YMAY",
    "city": "albury airport",
    "region": "",
    "country": "au",
    "latitude": -36.066666666667,
    "longitude": 146.93333333333,
    "time": "2015-03-01T08:00:00+11:00",
    "temp": 20,
    "dewpoint": 17,
    "humidity": 83,
    "conditions": "Mostly Cloudy",
    "weather_primary_coded": "::BK",
    "clouds_coded": "BK",
    "is_day": true,
    "wind_kph": 15,
    "wind_direction": "WNW"
  },
  "YMER": {
    "id": "YMER",
    "city": "merimbula arpt",
    "region": "",
    "country": "au",
    "latitude": -36.916666666667,
    "longitude": 149.9,
    "time": "2015-03-01T08:00:00+11:00",
    "temp": 20,
    "dewpoint": 18,
    "humidity": 88,
    "conditions": "Partly Cloudy",
    "weather_primary_coded": "::SC",
    "clouds_coded": "SC",
    "is_day": true,
    "wind_kph": 0,
    "wind_direction": "N"
  },
  "YCOM": {
    "id": "YCOM",
    "city": "cooma snowy mtns",
    "region": "",
    "country": "au",
    "latitude": -36.3,
    "longitude": 148.96666666667,
    "time": "2015-03-01T08:00:00+11:00",
    "temp": 17,
    "dewpoint": 11,
    "humidity": 68,
    "conditions": "Mostly Cloudy",
    "weather_primary_coded": "::BK",
    "clouds_coded": "BK",
    "is_day": true,
    "wind_kph": 9,
    "wind_direction": "N"
  },
  "YMOR": {
    "id": "YMOR",
    "city": "moree arpt",
    "region": "",
    "country": "au",
    "latitude": -29.5,
    "longitude": 149.85,
    "time": "2015-03-01T08:00:00+11:00",
    "temp": 23,
    "dewpoint": 19,
    "humidity": 78,
    "conditions": "Mostly Cloudy",
    "weather_primary_coded": "::BK",
    "clouds_coded": "BK",
    "is_day": true,
    "wind_kph": 31,
    "wind_direction": "NNE"
  },
  "YTRE": {
    "id": "YTRE",
    "city": "taree airport",
    "region": "",
    "country": "au",
    "latitude": -31.883333333333,
    "longitude": 152.51666666667,
    "time": "2015-03-01T08:00:00+11:00",
    "temp": 22,
    "dewpoint": 21,
    "humidity": 94,
    "conditions": "Mostly Sunny",
    "weather_primary_coded": "::FW",
    "clouds_coded": "FW",
    "is_day": true,
    "wind_kph": 0,
    "wind_direction": "N"
  },
  "YGTH": {
    "id": "YGTH",
    "city": "griffith arpt",
    "region": "",
    "country": "au",
    "latitude": -34.25,
    "longitude": 146.06666666667,
    "time": "2015-03-01T08:00:00+11:00",
    "temp": 23,
    "dewpoint": 15,
    "humidity": 61,
    "conditions": "Mostly Sunny",
    "weather_primary_coded": "::FW",
    "clouds_coded": "FW",
    "is_day": true,
    "wind_kph": 24,
    "wind_direction": "WSW"
  },
  "YPPD": {
    "id": "YPPD",
    "city": "port hedland arr",
    "region": "",
    "country": "au",
    "latitude": -20.366666666667,
    "longitude": 118.61666666667,
    "time": "2015-03-01T05:00:00+08:00",
    "temp": 28,
    "dewpoint": 23,
    "humidity": 74,
    "conditions": "Partly Cloudy",
    "weather_primary_coded": "::SC",
    "clouds_coded": "SC",
    "is_day": false,
    "wind_kph": 13,
    "wind_direction": "S"
  },
  "YBBN": {
    "id": "YBBN",
    "city": "brisbane intl ar",
    "region": "",
    "country": "au",
    "latitude": -27.383333333333,
    "longitude": 153.13333333333,
    "time": "2015-03-01T07:00:00+10:00",
    "temp": 23,
    "dewpoint": 21,
    "humidity": 89,
    "conditions": "Mostly Sunny",
    "weather_primary_coded": "::FW",
    "clouds_coded": "FW",
    "is_day": true,
    "wind_kph": 13,
    "wind_direction": "SSW"
  },
  "YBOK": {
    "id": "YBOK",
    "city": "oakey (army/civ)",
    "region": "",
    "country": "au",
    "latitude": -27.416666666667,
    "longitude": 151.71666666667,
    "time": "2015-03-01T07:00:00+10:00",
    "temp": 21,
    "dewpoint": 18,
    "humidity": 83,
    "conditions": "Mostly Sunny",
    "weather_primary_coded": "::FW",
    "clouds_coded": "FW",
    "is_day": true,
    "wind_kph": 7,
    "wind_direction": "E"
  },
  "YCDU": {
    "id": "YCDU",
    "city": "ceduna airport",
    "region": "",
    "country": "au",
    "latitude": -32.116666666667,
    "longitude": 133.7,
    "time": "2015-03-01T07:30:00+10:30",
    "temp": 15,
    "dewpoint": 9,
    "humidity": 68,
    "conditions": "Mostly Sunny",
    "weather_primary_coded": "::FW",
    "clouds_coded": "FW",
    "is_day": true,
    "wind_kph": 15,
    "wind_direction": "SSE"
  },
  "YBRM": {
    "id": "YBRM",
    "city": "broome airport",
    "region": "",
    "country": "au",
    "latitude": -17.933333333333,
    "longitude": 122.21666666667,
    "time": "2015-03-01T05:00:00+08:00",
    "temp": 25,
    "dewpoint": 25,
    "humidity": 100,
    "conditions": "Mostly Clear",
    "weather_primary_coded": "::FW",
    "clouds_coded": "FW",
    "is_day": false,
    "wind_kph": 0,
    "wind_direction": "N"
  },
  "YBAS": {
    "id": "YBAS",
    "city": "alice springs ar",
    "region": "",
    "country": "au",
    "latitude": -23.8,
    "longitude": 133.9,
    "time": "2015-03-01T06:30:00+09:30",
    "temp": 24,
    "dewpoint": 14,
    "humidity": 54,
    "conditions": "Mostly Sunny",
    "weather_primary_coded": "::FW",
    "clouds_coded": "FW",
    "is_day": true,
    "wind_kph": 9,
    "wind_direction": "S"
  },
  "YPKG": {
    "id": "YPKG",
    "city": "kalgoorlie/bould",
    "region": "",
    "country": "au",
    "latitude": -30.766666666667,
    "longitude": 121.45,
    "time": "2015-03-01T05:00:00+08:00",
    "temp": 18,
    "dewpoint": 12,
    "humidity": 68,
    "conditions": "Mostly Clear",
    "weather_primary_coded": "::FW",
    "clouds_coded": "FW",
    "is_day": false,
    "wind_kph": 17,
    "wind_direction": "ENE"
  },
  "YPPH": {
    "id": "YPPH",
    "city": "perth intl/belmo",
    "region": "",
    "country": "au",
    "latitude": -31.933333333333,
    "longitude": 115.98333333333,
    "time": "2015-03-01T05:00:00+08:00",
    "temp": 18,
    "dewpoint": 11,
    "humidity": 64,
    "conditions": "Mostly Clear",
    "weather_primary_coded": "::FW",
    "clouds_coded": "FW",
    "is_day": false,
    "wind_kph": 15,
    "wind_direction": "ESE"
  },
  "YAYE": {
    "id": "YAYE",
    "city": "ayers rock",
    "region": "",
    "country": "au",
    "latitude": -25.183333333333,
    "longitude": 130.98333333333,
    "time": "2015-03-01T06:30:00+09:30",
    "temp": 26,
    "dewpoint": 16,
    "humidity": 54,
    "conditions": "Mostly Clear",
    "weather_primary_coded": "::FW",
    "clouds_coded": "FW",
    "is_day": false,
    "wind_kph": 20,
    "wind_direction": "SSE"
  },
  "YOLD": {
    "id": "YOLD",
    "city": "olympic dam arpt",
    "region": "",
    "country": "au",
    "latitude": -30.483333333333,
    "longitude": 136.88333333333,
    "time": "2015-03-01T07:30:00+10:30",
    "temp": 19,
    "dewpoint": 12,
    "humidity": 64,
    "conditions": "Mostly Sunny",
    "weather_primary_coded": "::FW",
    "clouds_coded": "FW",
    "is_day": true,
    "wind_kph": 31,
    "wind_direction": "S"
  },
  "YBHI": {
    "id": "YBHI",
    "city": "broken hill",
    "region": "",
    "country": "au",
    "latitude": -32,
    "longitude": 141.46666666667,
    "time": "2015-03-01T07:30:00+10:30",
    "temp": 16,
    "dewpoint": 10,
    "humidity": 68,
    "conditions": "Mostly Sunny",
    "weather_primary_coded": "::FW",
    "clouds_coded": "FW",
    "is_day": true,
    "wind_kph": 43,
    "wind_direction": "S"
  },
  "YESP": {
    "id": "YESP",
    "city": "esperance arpt",
    "region": "",
    "country": "au",
    "latitude": -33.683333333333,
    "longitude": 121.81666666667,
    "time": "2015-03-01T05:00:00+08:00",
    "temp": 14,
    "dewpoint": 11,
    "humidity": 82,
    "conditions": "Mostly Cloudy",
    "weather_primary_coded": "::BK",
    "clouds_coded": "BK",
    "is_day": false,
    "wind_kph": 11,
    "wind_direction": "ENE"
  },
  "YGEL": {
    "id": "YGEL",
    "city": "geraldton",
    "region": "",
    "country": "au",
    "latitude": -28.8,
    "longitude": 114.7,
    "time": "2015-03-01T05:00:00+08:00",
    "temp": 21,
    "dewpoint": 18,
    "humidity": 83,
    "conditions": "Partly Cloudy",
    "weather_primary_coded": "::SC",
    "clouds_coded": "SC",
    "is_day": false,
    "wind_kph": 6,
    "wind_direction": "ESE"
  },
  "YBCS": {
    "id": "YBCS",
    "city": "cairns airport",
    "region": "",
    "country": "au",
    "latitude": -16.866666666667,
    "longitude": 145.75,
    "time": "2015-03-01T07:00:00+10:00",
    "temp": 25,
    "dewpoint": 23,
    "humidity": 89,
    "conditions": "Mostly Sunny",
    "weather_primary_coded": "::FW",
    "clouds_coded": "FW",
    "is_day": true,
    "wind_kph": 0,
    "wind_direction": "N"
  },
  "YGFN": {
    "id": "YGFN",
    "city": "grafton arpt",
    "region": "",
    "country": "au",
    "latitude": -29.766666666667,
    "longitude": 153.03333333333,
    "time": "2015-03-01T08:00:00+11:00",
    "temp": 21,
    "dewpoint": 20,
    "humidity": 94,
    "conditions": "Mostly Sunny",
    "weather_primary_coded": "::FW",
    "clouds_coded": "FW",
    "is_day": true,
    "wind_kph": 0,
    "wind_direction": "N"
  },
  "YBPN": {
    "id": "YBPN",
    "city": "prosperine airpo",
    "region": "",
    "country": "au",
    "latitude": -20.5,
    "longitude": 148.55,
    "time": "2015-03-01T07:00:00+10:00",
    "temp": 23,
    "dewpoint": 22,
    "humidity": 94,
    "conditions": "Mostly Sunny",
    "weather_primary_coded": "::FW",
    "clouds_coded": "FW",
    "is_day": true,
    "wind_kph": 7,
    "wind_direction": "S"
  },
  "YBUD": {
    "id": "YBUD",
    "city": "bundaberg",
    "region": "",
    "country": "au",
    "latitude": -24.9,
    "longitude": 152.31666666667,
    "time": "2015-03-01T07:00:00+10:00",
    "temp": 23,
    "dewpoint": 21,
    "humidity": 89,
    "conditions": "Mostly Sunny",
    "weather_primary_coded": "::FW",
    "clouds_coded": "FW",
    "is_day": true,
    "wind_kph": 9,
    "wind_direction": "S"
  },
  "YEML": {
    "id": "YEML",
    "city": "emerald arpt",
    "region": "",
    "country": "au",
    "latitude": -24.566666666667,
    "longitude": 148.18333333333,
    "time": "2015-03-01T07:00:00+10:00",
    "temp": 24,
    "dewpoint": 21,
    "humidity": 83,
    "conditions": "Mostly Sunny",
    "weather_primary_coded": "::FW",
    "clouds_coded": "FW",
    "is_day": true,
    "wind_kph": 11,
    "wind_direction": "NNE"
  },
  "YGLA": {
    "id": "YGLA",
    "city": "gladstone",
    "region": "",
    "country": "au",
    "latitude": -23.866666666667,
    "longitude": 151.21666666667,
    "time": "2015-03-01T07:00:00+10:00",
    "temp": 24,
    "dewpoint": 21,
    "humidity": 83,
    "conditions": "Partly Cloudy",
    "weather_primary_coded": "::SC",
    "clouds_coded": "SC",
    "is_day": true,
    "wind_kph": 7,
    "wind_direction": "SSW"
  },
  "YCAR": {
    "id": "YCAR",
    "city": "carnarvon",
    "region": "",
    "country": "au",
    "latitude": -24.883333333333,
    "longitude": 113.66666666667,
    "time": "2015-03-01T05:00:00+08:00",
    "temp": 25,
    "dewpoint": 23,
    "humidity": 89,
    "conditions": "Mostly Clear",
    "weather_primary_coded": "::FW",
    "clouds_coded": "FW",
    "is_day": false,
    "wind_kph": 7,
    "wind_direction": "SW"
  },
  "YLRE": {
    "id": "YLRE",
    "city": "longreach arpt",
    "region": "",
    "country": "au",
    "latitude": -23.433333333333,
    "longitude": 144.28333333333,
    "time": "2015-03-01T07:00:00+10:00",
    "temp": 29,
    "dewpoint": 19,
    "humidity": 55,
    "conditions": "Mostly Sunny",
    "weather_primary_coded": "::FW",
    "clouds_coded": "FW",
    "is_day": true,
    "wind_kph": 28,
    "wind_direction": "NNE"
  },
  "YBWP": {
    "id": "YBWP",
    "city": "weipa city",
    "region": "",
    "country": "au",
    "latitude": -12.616666666667,
    "longitude": 141.86666666667,
    "time": "2015-03-01T07:00:00+10:00",
    "temp": 24,
    "dewpoint": 23,
    "humidity": 94,
    "conditions": "Mostly Sunny",
    "weather_primary_coded": "::FW",
    "clouds_coded": "FW",
    "is_day": true,
    "wind_kph": 6,
    "wind_direction": "E"
  },
  "YBMK": {
    "id": "YBMK",
    "city": "mackay",
    "region": "",
    "country": "au",
    "latitude": -21.116666666667,
    "longitude": 149.21666666667,
    "time": "2015-03-01T07:00:00+10:00",
    "temp": 24,
    "dewpoint": 22,
    "humidity": 89,
    "conditions": "Partly Cloudy",
    "weather_primary_coded": "::SC",
    "clouds_coded": "SC",
    "is_day": true,
    "wind_kph": 9,
    "wind_direction": "WSW"
  },
  "YBCV": {
    "id": "YBCV",
    "city": "charleville arpt",
    "region": "",
    "country": "au",
    "latitude": -26.383333333333,
    "longitude": 146.26666666667,
    "time": "2015-03-01T07:00:00+10:00",
    "temp": 28,
    "dewpoint": 20,
    "humidity": 62,
    "conditions": "Mostly Sunny",
    "weather_primary_coded": "::FW",
    "clouds_coded": "FW",
    "is_day": true,
    "wind_kph": 19,
    "wind_direction": "N"
  },
  "YPWR": {
    "id": "YPWR",
    "city": "woomera (aus-afb",
    "region": "",
    "country": "au",
    "latitude": -31.116666666667,
    "longitude": 136.81666666667,
    "time": "2015-03-01T07:30:00+10:30",
    "temp": 17,
    "dewpoint": 10,
    "humidity": 64,
    "conditions": "Mostly Sunny",
    "weather_primary_coded": "::FW",
    "clouds_coded": "FW",
    "is_day": true,
    "wind_kph": 30,
    "wind_direction": "S"
  },
  "YMIA": {
    "id": "YMIA",
    "city": "mildura arpt",
    "region": "",
    "country": "au",
    "latitude": -34.233333333333,
    "longitude": 142.08333333333,
    "time": "2015-03-01T08:00:00+11:00",
    "temp": 15,
    "dewpoint": 11,
    "humidity": 77,
    "conditions": "Mostly Sunny",
    "weather_primary_coded": "::FW",
    "clouds_coded": "FW",
    "is_day": true,
    "wind_kph": 13,
    "wind_direction": "SSW"
  },
  "YSDU": {
    "id": "YSDU",
    "city": "dubbo",
    "region": "",
    "country": "au",
    "latitude": -32.216666666667,
    "longitude": 148.56666666667,
    "time": "2015-03-01T08:00:00+11:00",
    "temp": 24,
    "dewpoint": 16,
    "humidity": 61,
    "conditions": "Mostly Sunny",
    "weather_primary_coded": "::FW",
    "clouds_coded": "FW",
    "is_day": true,
    "wind_kph": 9,
    "wind_direction": "SE"
  },
  "YMDG": {
    "id": "YMDG",
    "city": "mudgee arpt",
    "region": "",
    "country": "au",
    "latitude": -32.566666666667,
    "longitude": 149.61666666667,
    "time": "2015-03-01T08:00:00+11:00",
    "temp": 18,
    "dewpoint": 13,
    "humidity": 73,
    "conditions": "Mostly Sunny",
    "weather_primary_coded": "::FW",
    "clouds_coded": "FW",
    "is_day": true,
    "wind_kph": 0,
    "wind_direction": "N"
  },
  "YPTN": {
    "id": "YPTN",
    "city": "katherine/tindal",
    "region": "",
    "country": "au",
    "latitude": -14.516666666667,
    "longitude": 132.38333333333,
    "time": "2015-03-01T06:30:00+09:30",
    "temp": 25,
    "dewpoint": 24,
    "humidity": 94,
    "conditions": "Mostly Clear",
    "weather_primary_coded": "::FW",
    "clouds_coded": "FW",
    "is_day": false,
    "wind_kph": 2,
    "wind_direction": "NW"
  },
  "YCIN": {
    "id": "YCIN",
    "city": "curtin/derby",
    "region": "",
    "country": "au",
    "latitude": -17.566666666667,
    "longitude": 123.83333333333,
    "time": "2015-03-01T05:00:00+08:00",
    "temp": 25,
    "dewpoint": 24,
    "humidity": 94,
    "conditions": "Mostly Clear",
    "weather_primary_coded": "::FW",
    "clouds_coded": "FW",
    "is_day": false,
    "wind_kph": 6,
    "wind_direction": "W"
  },
  "YPBO": {
    "id": "YPBO",
    "city": "paraburdoo",
    "region": "",
    "country": "au",
    "latitude": -23.2,
    "longitude": 117.75,
    "time": "2015-03-01T05:00:00+08:00",
    "temp": 24,
    "dewpoint": 23,
    "humidity": 94,
    "conditions": "Mostly Cloudy",
    "weather_primary_coded": "::BK",
    "clouds_coded": "BK",
    "is_day": false,
    "wind_kph": 15,
    "wind_direction": "ENE"
  },
  "YPKU": {
    "id": "YPKU",
    "city": "kununurra airpor",
    "region": "",
    "country": "au",
    "latitude": -15.766666666667,
    "longitude": 128.68333333333,
    "time": "2015-03-01T05:00:00+08:00",
    "temp": 25,
    "dewpoint": 23,
    "humidity": 89,
    "conditions": "Mostly Clear",
    "weather_primary_coded": "::FW",
    "clouds_coded": "FW",
    "is_day": false,
    "wind_kph": 0,
    "wind_direction": "N"
  },
  "YCBP": {
    "id": "YCBP",
    "city": "coober pedy",
    "region": "",
    "country": "au",
    "latitude": -29.033333333333,
    "longitude": 134.71666666667,
    "time": "2015-03-01T07:30:00+10:30",
    "temp": 18,
    "dewpoint": 11,
    "humidity": 64,
    "conditions": "Mostly Sunny",
    "weather_primary_coded": "::FW",
    "clouds_coded": "FW",
    "is_day": true,
    "wind_kph": 33,
    "wind_direction": "S"
  },
  "YARG": {
    "id": "YARG",
    "city": "argyle aero",
    "region": "",
    "country": "au",
    "latitude": -16.633333333333,
    "longitude": 128.45,
    "time": "2015-03-01T05:00:00+08:00",
    "temp": 27,
    "dewpoint": 20,
    "humidity": 66,
    "conditions": "Mostly Clear",
    "weather_primary_coded": "::FW",
    "clouds_coded": "FW",
    "is_day": false,
    "wind_kph": 9,
    "wind_direction": "S"
  },
  "YNWN": {
    "id": "YNWN",
    "city": "newman arpt",
    "region": "",
    "country": "au",
    "latitude": -23.416666666667,
    "longitude": 119.8,
    "time": "2015-03-01T05:00:00+08:00",
    "temp": 22,
    "dewpoint": 19,
    "humidity": 83,
    "conditions": "Mostly Clear",
    "weather_primary_coded": "::FW",
    "clouds_coded": "FW",
    "is_day": false,
    "wind_kph": 9,
    "wind_direction": "SSE"
  },
  "YTNK": {
    "id": "YTNK",
    "city": "tennant creek",
    "region": "",
    "country": "au",
    "latitude": -19.633333333333,
    "longitude": 134.18333333333,
    "time": "2015-03-01T06:30:00+09:30",
    "temp": 25,
    "dewpoint": 19,
    "humidity": 69,
    "conditions": "Mostly Clear",
    "weather_primary_coded": "::FW",
    "clouds_coded": "FW",
    "is_day": false,
    "wind_kph": 11,
    "wind_direction": "WNW"
  },
  "YMML": {
    "id": "YMML",
    "city": "melbourne intl a",
    "region": "",
    "country": "au",
    "latitude": -37.666666666667,
    "longitude": 144.81666666667,
    "time": "2015-03-01T08:00:00+11:00",
    "temp": 14,
    "dewpoint": 12,
    "humidity": 88,
    "conditions": "Mostly Sunny",
    "weather_primary_coded": "::FW",
    "clouds_coded": "FW",
    "is_day": true,
    "wind_kph": 15,
    "wind_direction": "W"
  },
  "YPCC": {
    "id": "YPCC",
    "city": "cocos isl intl a",
    "region": "",
    "country": "au",
    "latitude": -12.166666666667,
    "longitude": 96.816666666667,
    "time": "2015-03-01T03:34:00+06:30",
    "temp": 25,
    "dewpoint": 23,
    "humidity": 89,
    "conditions": "Mostly Cloudy",
    "weather_primary_coded": "::BK",
    "clouds_coded": "BK",
    "is_day": false,
    "wind_kph": 9,
    "wind_direction": "E"
  },
  "YNBR": {
    "id": "YNBR",
    "city": "narrabri",
    "region": "",
    "country": "au",
    "latitude": -30.316666666667,
    "longitude": 149.83333333333,
    "time": "2015-03-01T08:22:00+11:00",
    "temp": 27,
    "dewpoint": 19,
    "humidity": 62,
    "conditions": "Mostly Sunny",
    "weather_primary_coded": "::FW",
    "clouds_coded": "FW",
    "is_day": true,
    "wind_kph": 33,
    "wind_direction": "NNE"
  },
  "YSNF": {
    "id": "YSNF",
    "city": "norfolk island a",
    "region": "",
    "country": "au",
    "latitude": -29.016666666667,
    "longitude": 167.91666666667,
    "time": "2015-03-01T08:53:00+11:30",
    "temp": 23,
    "dewpoint": 21,
    "humidity": 89,
    "conditions": "Mostly Cloudy",
    "weather_primary_coded": "::BK",
    "clouds_coded": "BK",
    "is_day": true,
    "wind_kph": 17,
    "wind_direction": "NE"
  },
  "YHID": {
    "id": "YHID",
    "city": "horn island",
    "region": "",
    "country": "au",
    "latitude": -10.583333333333,
    "longitude": 142.3,
    "time": "2015-03-01T07:30:00+10:00",
    "temp": 25,
    "dewpoint": 24,
    "humidity": 94,
    "conditions": "Heavy Showers",
    "weather_primary_coded": ":H:RW",
    "clouds_coded": "OV",
    "is_day": true,
    "wind_kph": 19,
    "wind_direction": "WNW"
  },
  "TNCA": {
    "id": "TNCA",
    "city": "queen beatrix",
    "region": "",
    "country": "aw",
    "latitude": 12.5,
    "longitude": -70,
    "time": "2015-02-28T17:00:00-04:00",
    "temp": 30,
    "dewpoint": 23,
    "humidity": 66,
    "conditions": "Mostly Sunny",
    "weather_primary_coded": "::FW",
    "clouds_coded": "FW",
    "is_day": true,
    "wind_kph": 37,
    "wind_direction": "E"
  },
  "UBBQ": {
    "id": "UBBQ",
    "city": "qabala",
    "region": "",
    "country": "az",
    "latitude": 40.816666666667,
    "longitude": 47.716666666667,
    "time": "2015-03-01T01:00:00+04:00",
    "temp": 5,
    "dewpoint": 3,
    "humidity": 87,
    "conditions": "Cloudy",
    "weather_primary_coded": "::OV",
    "clouds_coded": "OV",
    "is_day": false,
    "wind_kph": 4,
    "wind_direction": "N"
  },
  "UBBY": {
    "id": "UBBY",
    "city": "zakataly",
    "region": "",
    "country": "az",
    "latitude": 41.566666666667,
    "longitude": 46.666666666667,
    "time": "2015-03-01T01:00:00+04:00",
    "temp": 6,
    "dewpoint": 2,
    "humidity": 76,
    "conditions": "Mostly Cloudy",
    "weather_primary_coded": "::BK",
    "clouds_coded": "BK",
    "is_day": false,
    "wind_kph": 0,
    "wind_direction": "N"
  },
  "UBBG": {
    "id": "UBBG",
    "city": "gyandzha",
    "region": "",
    "country": "az",
    "latitude": 40.733333333333,
    "longitude": 46.316666666667,
    "time": "2015-03-01T01:00:00+04:00",
    "temp": 5,
    "dewpoint": 3,
    "humidity": 87,
    "conditions": "Partly Cloudy",
    "weather_primary_coded": "::SC",
    "clouds_coded": "SC",
    "is_day": false,
    "wind_kph": 6,
    "wind_direction": "SW"
  },
  "UBBL": {
    "id": "UBBL",
    "city": "lenkoran",
    "region": "",
    "country": "az",
    "latitude": 38.75,
    "longitude": 48.816666666667,
    "time": "2015-03-01T01:00:00+04:00",
    "temp": 6,
    "dewpoint": 4,
    "humidity": 87,
    "conditions": "Mostly Cloudy",
    "weather_primary_coded": "::BK",
    "clouds_coded": "BK",
    "is_day": false,
    "wind_kph": 4,
    "wind_direction": "N"
  },
  "UBBB": {
    "id": "UBBB",
    "city": "baku/bine arpt",
    "region": "",
    "country": "az",
    "latitude": 40.45,
    "longitude": 50.066666666667,
    "time": "2015-03-01T01:00:00+04:00",
    "temp": 8,
    "dewpoint": 5,
    "humidity": 82,
    "conditions": "Mostly Cloudy",
    "weather_primary_coded": "::BK",
    "clouds_coded": "BK",
    "is_day": false,
    "wind_kph": 22,
    "wind_direction": "S"
  },
  "UBBN": {
    "id": "UBBN",
    "city": "nakhchivan",
    "region": "",
    "country": "az",
    "latitude": 39.183333333333,
    "longitude": 45.45,
    "time": "2015-03-01T01:30:00+04:00",
    "temp": 6,
    "dewpoint": -2,
    "humidity": 57,
    "conditions": "Mostly Cloudy",
    "weather_primary_coded": "::BK",
    "clouds_coded": "BK",
    "is_day": false,
    "wind_kph": 6,
    "wind_direction": "N"
  },
  "LQMO": {
    "id": "LQMO",
    "city": "mostar airport",
    "region": "",
    "country": "ba",
    "latitude": 43.283333333333,
    "longitude": 17.833333333333,
    "time": "2015-02-28T22:00:00+01:00",
    "temp": 9,
    "dewpoint": 4,
    "humidity": 71,
    "conditions": "Mostly Clear",
    "weather_primary_coded": "::FW",
    "clouds_coded": "FW",
    "is_day": false,
    "wind_kph": 4,
    "wind_direction": "N"
  },
  "TBPB": {
    "id": "TBPB",
    "city": "grantley adams",
    "region": "",
    "country": "bb",
    "latitude": 13.066666666667,
    "longitude": -59.483333333333,
    "time": "2015-02-28T17:00:00-04:00",
    "temp": 26,
    "dewpoint": 21,
    "humidity": 74,
    "conditions": "Mostly Cloudy",
    "weather_primary_coded": "::BK",
    "clouds_coded": "BK",
    "is_day": true,
    "wind_kph": 35,
    "wind_direction": "NE"
  },
  "VGEG": {
    "id": "VGEG",
    "city": "chittagong (cv/m",
    "region": "",
    "country": "bd",
    "latitude": 22.266666666667,
    "longitude": 91.816666666667,
    "time": "2015-02-28T22:50:00+06:00",
    "temp": 25,
    "dewpoint": 23,
    "humidity": 89,
    "conditions": "Hazy",
    "weather_primary_coded": "::H",
    "clouds_coded": "FW",
    "is_day": false,
    "wind_kph": 0,
    "wind_direction": "N"
  },
  "VGHS": {
    "id": "VGHS",
    "city": "dhaka",
    "region": "",
    "country": "bd",
    "latitude": 23.85,
    "longitude": 90.4,
    "time": "2015-03-01T02:50:00+06:00",
    "temp": 24,
    "dewpoint": 19,
    "humidity": 74,
    "conditions": "Hazy",
    "weather_primary_coded": "::H",
    "clouds_coded": "FW",
    "is_day": false,
    "wind_kph": 9,
    "wind_direction": "ENE"
  },
  "EBBE": {
    "id": "EBBE",
    "city": "beauvechain (baf",
    "region": "",
    "country": "be",
    "latitude": 50.75,
    "longitude": 4.7666666666667,
    "time": "2015-02-28T21:25:00+01:00",
    "temp": 6,
    "dewpoint": -1,
    "humidity": 61,
    "conditions": "Mostly Clear",
    "weather_primary_coded": "::FW",
    "clouds_coded": "FW",
    "is_day": false,
    "wind_kph": 35,
    "wind_direction": "SSW"
  },
  "EBLB": {
    "id": "EBLB",
    "city": "elsenborn (mil)",
    "region": "",
    "country": "be",
    "latitude": 50.466666666667,
    "longitude": 6.1666666666667,
    "time": "2015-02-28T21:25:00+01:00",
    "temp": 2,
    "dewpoint": -4,
    "humidity": 65,
    "conditions": "Mostly Clear",
    "weather_primary_coded": "::FW",
    "clouds_coded": "FW",
    "is_day": false,
    "wind_kph": 19,
    "wind_direction": "SSW"
  },
  "EBDT": {
    "id": "EBDT",
    "city": "schaffen",
    "region": "",
    "country": "be",
    "latitude": 51.016666666667,
    "longitude": 5.0666666666667,
    "time": "2015-02-28T21:25:00+01:00",
    "temp": 7,
    "dewpoint": -1,
    "humidity": 57,
    "conditions": "Mostly Clear",
    "weather_primary_coded": "::FW",
    "clouds_coded": "FW",
    "is_day": false,
    "wind_kph": 20,
    "wind_direction": "S"
  },
  "EBCV": {
    "id": "EBCV",
    "city": "chievres ab",
    "region": "",
    "country": "be",
    "latitude": 50.566666666667,
    "longitude": 3.8166666666667,
    "time": "2015-02-28T21:25:00+01:00",
    "temp": 7,
    "dewpoint": 2,
    "humidity": 71,
    "conditions": "Mostly Clear",
    "weather_primary_coded": "::FW",
    "clouds_coded": "FW",
    "is_day": false,
    "wind_kph": 35,
    "wind_direction": "S"
  },
  "EBFN": {
    "id": "EBFN",
    "city": "koksijde (bel-af",
    "region": "",
    "country": "be",
    "latitude": 51.066666666667,
    "longitude": 2.6333333333333,
    "time": "2015-02-28T21:55:00+01:00",
    "temp": 8,
    "dewpoint": 6,
    "humidity": 87,
    "conditions": "Mostly Cloudy",
    "weather_primary_coded": "::BK",
    "clouds_coded": "BK",
    "is_day": false,
    "wind_kph": 31,
    "wind_direction": "S"
  },
  "EBBL": {
    "id": "EBBL",
    "city": "kleine-brogel(ba",
    "region": "",
    "country": "be",
    "latitude": 51.166666666667,
    "longitude": 5.4666666666667,
    "time": "2015-02-28T21:55:00+01:00",
    "temp": 7,
    "dewpoint": -2,
    "humidity": 53,
    "conditions": "Mostly Cloudy",
    "weather_primary_coded": "::BK",
    "clouds_coded": "BK",
    "is_day": false,
    "wind_kph": 19,
    "wind_direction": "SSW"
  },
  "EBFS": {
    "id": "EBFS",
    "city": "florennes (bel-a",
    "region": "",
    "country": "be",
    "latitude": 50.216666666667,
    "longitude": 4.65,
    "time": "2015-02-28T22:16:00+01:00",
    "temp": 5,
    "dewpoint": -2,
    "humidity": 61,
    "conditions": "Mostly Clear",
    "weather_primary_coded": "::FW",
    "clouds_coded": "FW",
    "is_day": false,
    "wind_kph": 31,
    "wind_direction": "S"
  },
  "EBOS": {
    "id": "EBOS",
    "city": "oostende airport",
    "region": "",
    "country": "be",
    "latitude": 51.2,
    "longitude": 2.8666666666667,
    "time": "2015-02-28T22:20:00+01:00",
    "temp": 7,
    "dewpoint": 5,
    "humidity": 87,
    "conditions": "Mostly Cloudy",
    "weather_primary_coded": "::BK",
    "clouds_coded": "BK",
    "is_day": false,
    "wind_kph": 28,
    "wind_direction": "S"
  },
  "EBBR": {
    "id": "EBBR",
    "city": "brussels nationa",
    "region": "",
    "country": "be",
    "latitude": 50.9,
    "longitude": 4.5,
    "time": "2015-02-28T22:20:00+01:00",
    "temp": 7,
    "dewpoint": 0,
    "humidity": 61,
    "conditions": "Mostly Cloudy",
    "weather_primary_coded": "::BK",
    "clouds_coded": "BK",
    "is_day": false,
    "wind_kph": 35,
    "wind_direction": "SSW"
  },
  "EBAW": {
    "id": "EBAW",
    "city": "antwerp/deurne",
    "region": "",
    "country": "be",
    "latitude": 51.2,
    "longitude": 4.4666666666667,
    "time": "2015-02-28T22:20:00+01:00",
    "temp": 8,
    "dewpoint": 1,
    "humidity": 62,
    "conditions": "Mostly Cloudy",
    "weather_primary_coded": "::BK",
    "clouds_coded": "BK",
    "is_day": false,
    "wind_kph": 24,
    "wind_direction": "SSW"
  },
  "EBCI": {
    "id": "EBCI",
    "city": "charleroi/gossel",
    "region": "",
    "country": "be",
    "latitude": 50.466666666667,
    "longitude": 4.45,
    "time": "2015-02-28T22:20:00+01:00",
    "temp": 7,
    "dewpoint": -1,
    "humidity": 57,
    "conditions": "Mostly Cloudy",
    "weather_primary_coded": "::BK",
    "clouds_coded": "BK",
    "is_day": false,
    "wind_kph": 35,
    "wind_direction": "S"
  },
  "EBLG": {
    "id": "EBLG",
    "city": "bierset/liege (c",
    "region": "",
    "country": "be",
    "latitude": 50.633333333333,
    "longitude": 5.45,
    "time": "2015-02-28T22:20:00+01:00",
    "temp": 6,
    "dewpoint": -3,
    "humidity": 53,
    "conditions": "Mostly Cloudy",
    "weather_primary_coded": "::BK",
    "clouds_coded": "BK",
    "is_day": false,
    "wind_kph": 31,
    "wind_direction": "S"
  },
  "KQBF": {
    "id": "KQBF",
    "city": "ouagadougou",
    "region": "",
    "country": "bf",
    "latitude": 12.35,
    "longitude": -1.5166666666667,
    "time": "2015-02-28T20:55:00+00:00",
    "temp": 28,
    "dewpoint": -10,
    "humidity": 7,
    "conditions": "Hazy",
    "weather_primary_coded": "::H",
    "clouds_coded": "CL",
    "is_day": false,
    "wind_kph": 7,
    "wind_direction": "NNE"
  },
  "DFOO": {
    "id": "DFOO",
    "city": "bobo-dioulasso",
    "region": "",
    "country": "bf",
    "latitude": 11.166666666667,
    "longitude": -4.3166666666667,
    "time": "2015-02-28T21:00:00+00:00",
    "temp": 28,
    "dewpoint": -4,
    "humidity": 12,
    "conditions": "Mostly Clear",
    "weather_primary_coded": "::FW",
    "clouds_coded": "FW",
    "is_day": false,
    "wind_kph": 11,
    "wind_direction": "N"
  },
  "DFFD": {
    "id": "DFFD",
    "city": "ouagadougou (mil",
    "region": "",
    "country": "bf",
    "latitude": 12.333333333333,
    "longitude": -1.5166666666667,
    "time": "2015-02-28T21:00:00+00:00",
    "temp": 27,
    "dewpoint": -7,
    "humidity": 10,
    "conditions": "Mostly Clear",
    "weather_primary_coded": "::FW",
    "clouds_coded": "FW",
    "is_day": false,
    "wind_kph": 11,
    "wind_direction": "NE"
  },
  "LBSF": {
    "id": "LBSF",
    "city": "sofia (observato",
    "region": "",
    "country": "bg",
    "latitude": 42.65,
    "longitude": 23.383333333333,
    "time": "2015-02-28T23:00:00+02:00",
    "temp": 4,
    "dewpoint": 3,
    "humidity": 93,
    "conditions": "Mist and Fog",
    "weather_primary_coded": "::BR",
    "clouds_coded": "FW",
    "is_day": false,
    "wind_kph": 6,
    "wind_direction": "ESE"
  },
  "LBPD": {
    "id": "LBPD",
    "city": "plovdiv",
    "region": "",
    "country": "bg",
    "latitude": 42.133333333333,
    "longitude": 24.8,
    "time": "2015-02-28T23:00:00+02:00",
    "temp": 10,
    "dewpoint": 8,
    "humidity": 88,
    "conditions": "Mostly Clear",
    "weather_primary_coded": "::FW",
    "clouds_coded": "FW",
    "is_day": false,
    "wind_kph": 9,
    "wind_direction": "E"
  },
  "LBBG": {
    "id": "LBBG",
    "city": "burgas",
    "region": "",
    "country": "bg",
    "latitude": 42.566666666667,
    "longitude": 27.516666666667,
    "time": "2015-02-28T23:00:00+02:00",
    "temp": 5,
    "dewpoint": 5,
    "humidity": 100,
    "conditions": "Mist and Fog",
    "weather_primary_coded": "::BR",
    "clouds_coded": "BK",
    "is_day": false,
    "wind_kph": 7,
    "wind_direction": "NE"
  },
  "LBWN": {
    "id": "LBWN",
    "city": "varna",
    "region": "",
    "country": "bg",
    "latitude": 43.216666666667,
    "longitude": 27.816666666667,
    "time": "2015-02-28T23:00:00+02:00",
    "temp": 6,
    "dewpoint": 5,
    "humidity": 93,
    "conditions": "Mist and Fog",
    "weather_primary_coded": "::BR",
    "clouds_coded": "FW",
    "is_day": false,
    "wind_kph": 11,
    "wind_direction": "ESE"
  },
  "OBBI": {
    "id": "OBBI",
    "city": "bahrain intl arp",
    "region": "",
    "country": "bh",
    "latitude": 26.266666666667,
    "longitude": 50.633333333333,
    "time": "2015-03-01T00:00:00+03:00",
    "temp": 18,
    "dewpoint": 16,
    "humidity": 88,
    "conditions": "Mostly Clear",
    "weather_primary_coded": "::FW",
    "clouds_coded": "FW",
    "is_day": false,
    "wind_kph": 7,
    "wind_direction": "SE"
  },
  "DBBB": {
    "id": "DBBB",
    "city": "cotonou/cadjehou",
    "region": "",
    "country": "bj",
    "latitude": 6.3333333333333,
    "longitude": 2.3666666666667,
    "time": "2015-02-28T22:00:00+01:00",
    "temp": 29,
    "dewpoint": 25,
    "humidity": 79,
    "conditions": "Mostly Clear",
    "weather_primary_coded": "::FW",
    "clouds_coded": "FW",
    "is_day": false,
    "wind_kph": 15,
    "wind_direction": "S"
  },
  "TXKF": {
    "id": "TXKF",
    "city": "bermuda nas",
    "region": "",
    "country": "bm",
    "latitude": 32.366666666667,
    "longitude": -64.683333333333,
    "time": "2015-02-28T17:26:00-04:00",
    "temp": 17,
    "dewpoint": 16,
    "humidity": 94,
    "conditions": "Light Rain",
    "weather_primary_coded": ":L:R",
    "clouds_coded": "OV",
    "is_day": true,
    "wind_kph": 13,
    "wind_direction": "NNE"
  },
  "SLLP": {
    "id": "SLLP",
    "city": "la paz/jfk intl",
    "region": "",
    "country": "bo",
    "latitude": -16.516666666667,
    "longitude": -68.166666666667,
    "time": "2015-02-28T17:00:00-04:00",
    "temp": 14,
    "dewpoint": 2,
    "humidity": 44,
    "conditions": "Scattered Storms",
    "weather_primary_coded": "VC::T",
    "clouds_coded": "BK",
    "is_day": true,
    "wind_kph": 24,
    "wind_direction": "SE"
  },
  "SLCO": {
    "id": "SLCO",
    "city": "cobija",
    "region": "",
    "country": "bo",
    "latitude": -11.033333333333,
    "longitude": -68.783333333333,
    "time": "2015-02-28T17:00:00-04:00",
    "temp": 24,
    "dewpoint": 23,
    "humidity": 94,
    "conditions": "Light Rain",
    "weather_primary_coded": ":L:R",
    "clouds_coded": "BK",
    "is_day": true,
    "wind_kph": 15,
    "wind_direction": "N"
  },
  "SLVR": {
    "id": "SLVR",
    "city": "viru viru intl a",
    "region": "",
    "country": "bo",
    "latitude": -17.633333333333,
    "longitude": -63.116666666667,
    "time": "2015-02-28T17:00:00-04:00",
    "temp": 29,
    "dewpoint": 21,
    "humidity": 62,
    "conditions": "Mostly Cloudy",
    "weather_primary_coded": "::BK",
    "clouds_coded": "BK",
    "is_day": true,
    "wind_kph": 17,
    "wind_direction": "NW"
  },
  "SLTJ": {
    "id": "SLTJ",
    "city": "tarija/capt orie",
    "region": "",
    "country": "bo",
    "latitude": -21.55,
    "longitude": -64.716666666667,
    "time": "2015-02-28T17:00:00-04:00",
    "temp": 23,
    "dewpoint": 16,
    "humidity": 65,
    "conditions": "Partly Cloudy",
    "weather_primary_coded": "::SC",
    "clouds_coded": "SC",
    "is_day": true,
    "wind_kph": 0,
    "wind_direction": "N"
  },
  "SLCB": {
    "id": "SLCB",
    "city": "cochabamba/jorge",
    "region": "",
    "country": "bo",
    "latitude": -17.416666666667,
    "longitude": -66.183333333333,
    "time": "2015-02-28T17:00:00-04:00",
    "temp": 21,
    "dewpoint": 9,
    "humidity": 46,
    "conditions": "Mostly Cloudy",
    "weather_primary_coded": "::BK",
    "clouds_coded": "BK",
    "is_day": true,
    "wind_kph": 0,
    "wind_direction": "N"
  },
  "SLTR": {
    "id": "SLTR",
    "city": "trinidad/jorge h",
    "region": "",
    "country": "bo",
    "latitude": -14.833333333333,
    "longitude": -64.916666666667,
    "time": "2015-02-28T17:00:00-04:00",
    "temp": 27,
    "dewpoint": 23,
    "humidity": 79,
    "conditions": "Mostly Cloudy",
    "weather_primary_coded": "::BK",
    "clouds_coded": "BK",
    "is_day": true,
    "wind_kph": 9,
    "wind_direction": "W"
  },
  "SLSU": {
    "id": "SLSU",
    "city": "sucre/juana azur",
    "region": "",
    "country": "bo",
    "latitude": -19.016666666667,
    "longitude": -65.266666666667,
    "time": "2015-02-28T17:00:00-04:00",
    "temp": 19,
    "dewpoint": 11,
    "humidity": 60,
    "conditions": "Partly Cloudy",
    "weather_primary_coded": "::SC",
    "clouds_coded": "SC",
    "is_day": true,
    "wind_kph": 7,
    "wind_direction": "NE"
  },
  "SLPS": {
    "id": "SLPS",
    "city": "puerto suarez/sa",
    "region": "",
    "country": "bo",
    "latitude": -18.983333333333,
    "longitude": -57.816666666667,
    "time": "2015-02-28T17:00:00-04:00",
    "temp": 31,
    "dewpoint": 26,
    "humidity": 75,
    "conditions": "Cloudy",
    "weather_primary_coded": "::OV",
    "clouds_coded": "OV",
    "is_day": true,
    "wind_kph": 0,
    "wind_direction": "N"
  },
  "SBPF": {
    "id": "SBPF",
    "city": "passo fundo/laur",
    "region": "",
    "country": "br",
    "latitude": -28.25,
    "longitude": -52.333333333333,
    "time": "2015-02-28T14:00:00-03:00",
    "temp": 25,
    "dewpoint": 17,
    "humidity": 61,
    "conditions": "Partly Cloudy",
    "weather_primary_coded": "::SC",
    "clouds_coded": "SC",
    "is_day": true,
    "wind_kph": 28,
    "wind_direction": "E"
  },
  "SBST": {
    "id": "SBST",
    "city": "santos (braz-afb",
    "region": "",
    "country": "br",
    "latitude": -23.916666666667,
    "longitude": -46.283333333333,
    "time": "2015-02-28T14:13:00-03:00",
    "temp": null,
    "dewpoint": null,
    "humidity": null,
    "conditions": "Rain",
    "weather_primary_coded": "::R",
    "clouds_coded": "BK",
    "is_day": true,
    "wind_kph": 6,
    "wind_direction": "WNW"
  },
  "SBCM": {
    "id": "SBCM",
    "city": "forquilhinha",
    "region": "",
    "country": "br",
    "latitude": -28.716666666667,
    "longitude": -49.416666666667,
    "time": "2015-02-28T16:00:00-03:00",
    "temp": 26,
    "dewpoint": 16,
    "humidity": 54,
    "conditions": "Mostly Cloudy",
    "weather_primary_coded": "::BK",
    "clouds_coded": "BK",
    "is_day": true,
    "wind_kph": 15,
    "wind_direction": "SSE"
  },
  "SBPK": {
    "id": "SBPK",
    "city": "pelotas",
    "region": "",
    "country": "br",
    "latitude": -31.716666666667,
    "longitude": -52.333333333333,
    "time": "2015-02-28T17:00:00-03:00",
    "temp": 26,
    "dewpoint": 14,
    "humidity": 48,
    "conditions": "Mostly Sunny",
    "weather_primary_coded": "::FW",
    "clouds_coded": "FW",
    "is_day": true,
    "wind_kph": 19,
    "wind_direction": "E"
  },
  "SBCC": {
    "id": "SBCC",
    "city": "cachimbo",
    "region": "",
    "country": "br",
    "latitude": -9.3166666666667,
    "longitude": -54.95,
    "time": "2015-02-28T16:00:00-04:00",
    "temp": 24,
    "dewpoint": 22,
    "humidity": 89,
    "conditions": "Partly Cloudy",
    "weather_primary_coded": "::SC",
    "clouds_coded": "SC",
    "is_day": true,
    "wind_kph": 4,
    "wind_direction": "ESE"
  },
  "SBOI": {
    "id": "SBOI",
    "city": "oiapoque",
    "region": "",
    "country": "br",
    "latitude": 3.85,
    "longitude": -51.816666666667,
    "time": "2015-02-28T17:00:00-03:00",
    "temp": 29,
    "dewpoint": 22,
    "humidity": 66,
    "conditions": "Partly Cloudy",
    "weather_primary_coded": "::SC",
    "clouds_coded": "SC",
    "is_day": true,
    "wind_kph": 19,
    "wind_direction": "NNE"
  },
  "SBTC": {
    "id": "SBTC",
    "city": "una hotel transa",
    "region": "",
    "country": "br",
    "latitude": -15.35,
    "longitude": -38.983333333333,
    "time": "2015-02-28T17:20:00-03:00",
    "temp": 30,
    "dewpoint": 25,
    "humidity": 75,
    "conditions": "Thunderstorms",
    "weather_primary_coded": "::T",
    "clouds_coded": "FW",
    "is_day": true,
    "wind_kph": 11,
    "wind_direction": "NNE"
  },
  "SBSC": {
    "id": "SBSC",
    "city": "santa cruz (mil)",
    "region": "",
    "country": "br",
    "latitude": -22.916666666667,
    "longitude": -43.716666666667,
    "time": "2015-02-28T17:30:00-03:00",
    "temp": 26,
    "dewpoint": 22,
    "humidity": 79,
    "conditions": "Rain",
    "weather_primary_coded": "::R",
    "clouds_coded": "BK",
    "is_day": true,
    "wind_kph": 26,
    "wind_direction": "S"
  },
  "SBUA": {
    "id": "SBUA",
    "city": "sao gabriel cach",
    "region": "",
    "country": "br",
    "latitude": -0.15,
    "longitude": -66.983333333333,
    "time": "2015-02-28T17:00:00-04:00",
    "temp": 35,
    "dewpoint": 22,
    "humidity": 47,
    "conditions": "Partly Cloudy",
    "weather_primary_coded": "::SC",
    "clouds_coded": "SC",
    "is_day": true,
    "wind_kph": 6,
    "wind_direction": "SE"
  },
  "SBRB": {
    "id": "SBRB",
    "city": "rio branco/medic",
    "region": "",
    "country": "br",
    "latitude": -10,
    "longitude": -67.783333333333,
    "time": "2015-02-28T17:00:00-04:00",
    "temp": 25,
    "dewpoint": 22,
    "humidity": 83,
    "conditions": "Mostly Cloudy",
    "weather_primary_coded": "::BK",
    "clouds_coded": "BK",
    "is_day": true,
    "wind_kph": 13,
    "wind_direction": "NW"
  },
  "SBBV": {
    "id": "SBBV",
    "city": "boa vista (civ/m",
    "region": "",
    "country": "br",
    "latitude": 2.85,
    "longitude": -60.7,
    "time": "2015-02-28T17:00:00-04:00",
    "temp": 31,
    "dewpoint": 18,
    "humidity": 46,
    "conditions": "Partly Cloudy",
    "weather_primary_coded": "::SC",
    "clouds_coded": "SC",
    "is_day": true,
    "wind_kph": 17,
    "wind_direction": "ESE"
  },
  "SBSJ": {
    "id": "SBSJ",
    "city": "sao jose dos cam",
    "region": "",
    "country": "br",
    "latitude": -23.216666666667,
    "longitude": -45.866666666667,
    "time": "2015-02-28T18:00:00-03:00",
    "temp": 26,
    "dewpoint": 20,
    "humidity": 70,
    "conditions": "Mostly Cloudy",
    "weather_primary_coded": "::BK",
    "clouds_coded": "BK",
    "is_day": true,
    "wind_kph": 11,
    "wind_direction": "SE"
  },
  "SBMN": {
    "id": "SBMN",
    "city": "manaus/ponta pel",
    "region": "",
    "country": "br",
    "latitude": -3.1333333333333,
    "longitude": -59.966666666667,
    "time": "2015-02-28T17:00:00-04:00",
    "temp": 31,
    "dewpoint": 23,
    "humidity": 62,
    "conditions": "Mostly Sunny",
    "weather_primary_coded": "::FW",
    "clouds_coded": "FW",
    "is_day": true,
    "wind_kph": 6,
    "wind_direction": "SE"
  },
  "SBMT": {
    "id": "SBMT",
    "city": "marte (civ/mil)",
    "region": "",
    "country": "br",
    "latitude": -23.516666666667,
    "longitude": -46.616666666667,
    "time": "2015-02-28T18:00:00-03:00",
    "temp": 20,
    "dewpoint": 18,
    "humidity": 88,
    "conditions": "Mostly Cloudy",
    "weather_primary_coded": "::BK",
    "clouds_coded": "BK",
    "is_day": true,
    "wind_kph": 22,
    "wind_direction": "SE"
  },
  "SBAN": {
    "id": "SBAN",
    "city": "anapolis (braz-a",
    "region": "",
    "country": "br",
    "latitude": -16.216666666667,
    "longitude": -48.966666666667,
    "time": "2015-02-28T18:00:00-03:00",
    "temp": 25,
    "dewpoint": 18,
    "humidity": 65,
    "conditions": "Mostly Cloudy",
    "weather_primary_coded": "::BK",
    "clouds_coded": "BK",
    "is_day": true,
    "wind_kph": 11,
    "wind_direction": "N"
  },
  "SBEG": {
    "id": "SBEG",
    "city": "eduardo gomes in",
    "region": "",
    "country": "br",
    "latitude": -3.0166666666667,
    "longitude": -60.033333333333,
    "time": "2015-02-28T17:00:00-04:00",
    "temp": 32,
    "dewpoint": 23,
    "humidity": 59,
    "conditions": "Mostly Sunny",
    "weather_primary_coded": "::FW",
    "clouds_coded": "FW",
    "is_day": true,
    "wind_kph": 9,
    "wind_direction": "SSW"
  },
  "SBPV": {
    "id": "SBPV",
    "city": "porto velho(cv/m",
    "region": "",
    "country": "br",
    "latitude": -8.7166666666667,
    "longitude": -63.9,
    "time": "2015-02-28T17:00:00-04:00",
    "temp": 24,
    "dewpoint": 22,
    "humidity": 89,
    "conditions": "Scattered Storms",
    "weather_primary_coded": "::T",
    "clouds_coded": "SC",
    "is_day": true,
    "wind_kph": 15,
    "wind_direction": "NNW"
  },
  "SBVT": {
    "id": "SBVT",
    "city": "vitoria/goiabeir",
    "region": "",
    "country": "br",
    "latitude": -20.266666666667,
    "longitude": -40.266666666667,
    "time": "2015-02-28T18:00:00-03:00",
    "temp": 28,
    "dewpoint": 21,
    "humidity": 66,
    "conditions": "Mostly Sunny",
    "weather_primary_coded": "::FW",
    "clouds_coded": "FW",
    "is_day": true,
    "wind_kph": 17,
    "wind_direction": "S"
  },
  "SBSN": {
    "id": "SBSN",
    "city": "santarem intl ar",
    "region": "",
    "country": "br",
    "latitude": -2.4166666666667,
    "longitude": -54.783333333333,
    "time": "2015-02-28T17:00:00-04:00",
    "temp": 27,
    "dewpoint": 24,
    "humidity": 84,
    "conditions": "Mostly Cloudy",
    "weather_primary_coded": "::BK",
    "clouds_coded": "BK",
    "is_day": true,
    "wind_kph": 15,
    "wind_direction": "E"
  },
  "SBAF": {
    "id": "SBAF",
    "city": "afonsos arpt (mi",
    "region": "",
    "country": "br",
    "latitude": -22.866666666667,
    "longitude": -43.366666666667,
    "time": "2015-02-28T18:00:00-03:00",
    "temp": 27,
    "dewpoint": 22,
    "humidity": 74,
    "conditions": "Mostly Cloudy",
    "weather_primary_coded": "::BK",
    "clouds_coded": "BK",
    "is_day": true,
    "wind_kph": 26,
    "wind_direction": "S"
  },
  "SBRJ": {
    "id": "SBRJ",
    "city": "santos dumont/ri",
    "region": "",
    "country": "br",
    "latitude": -22.883333333333,
    "longitude": -43.166666666667,
    "time": "2015-02-28T18:00:00-03:00",
    "temp": 27,
    "dewpoint": 24,
    "humidity": 84,
    "conditions": "Mostly Cloudy",
    "weather_primary_coded": "::BK",
    "clouds_coded": "BK",
    "is_day": true,
    "wind_kph": 19,
    "wind_direction": "SSE"
  },
  "SBCO": {
    "id": "SBCO",
    "city": "porto alegre/can",
    "region": "",
    "country": "br",
    "latitude": -29.95,
    "longitude": -51.15,
    "time": "2015-02-28T18:00:00-03:00",
    "temp": 25,
    "dewpoint": 17,
    "humidity": 61,
    "conditions": "Mostly Sunny",
    "weather_primary_coded": "::FW",
    "clouds_coded": "FW",
    "is_day": true,
    "wind_kph": 22,
    "wind_direction": "SE"
  },
  "SBBQ": {
    "id": "SBBQ",
    "city": "barbacena (civ/m",
    "region": "",
    "country": "br",
    "latitude": -21.25,
    "longitude": -43.766666666667,
    "time": "2015-02-28T18:00:00-03:00",
    "temp": 24,
    "dewpoint": 18,
    "humidity": 69,
    "conditions": "Partly Cloudy",
    "weather_primary_coded": "::SC",
    "clouds_coded": "SC",
    "is_day": true,
    "wind_kph": 17,
    "wind_direction": "SSE"
  },
  "SBGW": {
    "id": "SBGW",
    "city": "guaratingueta (m",
    "region": "",
    "country": "br",
    "latitude": -22.766666666667,
    "longitude": -45.2,
    "time": "2015-02-28T18:00:00-03:00",
    "temp": 23,
    "dewpoint": 20,
    "humidity": 83,
    "conditions": "Showers Nearby",
    "weather_primary_coded": "VC::RW",
    "clouds_coded": "BK",
    "is_day": true,
    "wind_kph": 6,
    "wind_direction": "SSW"
  },
  "SBLB": {
    "id": "SBLB",
    "city": "albacora p25 oil",
    "region": "",
    "country": "br",
    "latitude": -22.1,
    "longitude": -39.916666666667,
    "time": "2015-02-28T18:00:00-03:00",
    "temp": 28,
    "dewpoint": 23,
    "humidity": 74,
    "conditions": "Mostly Sunny",
    "weather_primary_coded": "::FW",
    "clouds_coded": "FW",
    "is_day": true,
    "wind_kph": 31,
    "wind_direction": "S"
  },
  "SBPA": {
    "id": "SBPA",
    "city": "porto alegre/sal",
    "region": "",
    "country": "br",
    "latitude": -30,
    "longitude": -51.166666666667,
    "time": "2015-02-28T18:00:00-03:00",
    "temp": 25,
    "dewpoint": 17,
    "humidity": 61,
    "conditions": "Mostly Sunny",
    "weather_primary_coded": "::FW",
    "clouds_coded": "FW",
    "is_day": true,
    "wind_kph": 31,
    "wind_direction": "ESE"
  },
  "SBCZ": {
    "id": "SBCZ",
    "city": "cruzeiro do sul",
    "region": "",
    "country": "br",
    "latitude": -7.6166666666667,
    "longitude": -72.766666666667,
    "time": "2015-02-28T17:00:00-04:00",
    "temp": 29,
    "dewpoint": 25,
    "humidity": 79,
    "conditions": "Mostly Cloudy",
    "weather_primary_coded": "::BK",
    "clouds_coded": "BK",
    "is_day": true,
    "wind_kph": 0,
    "wind_direction": "N"
  },
  "SBRF": {
    "id": "SBRF",
    "city": "recife/guararape",
    "region": "",
    "country": "br",
    "latitude": -8.1333333333333,
    "longitude": -34.916666666667,
    "time": "2015-02-28T18:00:00-03:00",
    "temp": 28,
    "dewpoint": 23,
    "humidity": 74,
    "conditions": "Mostly Clear",
    "weather_primary_coded": "::FW",
    "clouds_coded": "FW",
    "is_day": false,
    "wind_kph": 15,
    "wind_direction": "ENE"
  },
  "SBJF": {
    "id": "SBJF",
    "city": "juiz fora/franci",
    "region": "",
    "country": "br",
    "latitude": -21.766666666667,
    "longitude": -43.383333333333,
    "time": "2015-02-28T18:00:00-03:00",
    "temp": 23,
    "dewpoint": 20,
    "humidity": 83,
    "conditions": "Partly Cloudy",
    "weather_primary_coded": "::SC",
    "clouds_coded": "SC",
    "is_day": true,
    "wind_kph": 20,
    "wind_direction": "S"
  },
  "SBJP": {
    "id": "SBJP",
    "city": "joao pessoa/pres",
    "region": "",
    "country": "br",
    "latitude": -7.15,
    "longitude": -34.95,
    "time": "2015-02-28T18:00:00-03:00",
    "temp": 28,
    "dewpoint": 22,
    "humidity": 70,
    "conditions": "Mostly Clear",
    "weather_primary_coded": "::FW",
    "clouds_coded": "FW",
    "is_day": false,
    "wind_kph": 15,
    "wind_direction": "E"
  },
  "SBJV": {
    "id": "SBJV",
    "city": "joinville",
    "region": "",
    "country": "br",
    "latitude": -26.216666666667,
    "longitude": -48.8,
    "time": "2015-02-28T18:00:00-03:00",
    "temp": 25,
    "dewpoint": 20,
    "humidity": 74,
    "conditions": "Mostly Cloudy",
    "weather_primary_coded": "::BK",
    "clouds_coded": "BK",
    "is_day": true,
    "wind_kph": 11,
    "wind_direction": "ESE"
  },
  "SBFZ": {
    "id": "SBFZ",
    "city": "fortaleza/pinto",
    "region": "",
    "country": "br",
    "latitude": -3.7666666666667,
    "longitude": -38.516666666667,
    "time": "2015-02-28T18:00:00-03:00",
    "temp": 26,
    "dewpoint": 22,
    "humidity": 79,
    "conditions": "Mostly Cloudy",
    "weather_primary_coded": "::BK",
    "clouds_coded": "BK",
    "is_day": false,
    "wind_kph": 7,
    "wind_direction": "N"
  },
  "SBUR": {
    "id": "SBUR",
    "city": "uberaba",
    "region": "",
    "country": "br",
    "latitude": -19.766666666667,
    "longitude": -47.966666666667,
    "time": "2015-02-28T18:00:00-03:00",
    "temp": 25,
    "dewpoint": 21,
    "humidity": 79,
    "conditions": "Showers Nearby",
    "weather_primary_coded": "VC::RW",
    "clouds_coded": "SC",
    "is_day": true,
    "wind_kph": 24,
    "wind_direction": "SSE"
  },
  "SBPJ": {
    "id": "SBPJ",
    "city": "palmas",
    "region": "",
    "country": "br",
    "latitude": -10.283333333333,
    "longitude": -48.366666666667,
    "time": "2015-02-28T18:00:00-03:00",
    "temp": 28,
    "dewpoint": 23,
    "humidity": 74,
    "conditions": "Partly Cloudy",
    "weather_primary_coded": "::SC",
    "clouds_coded": "SC",
    "is_day": true,
    "wind_kph": 9,
    "wind_direction": "S"
  },
  "SBGO": {
    "id": "SBGO",
    "city": "goiania/santa ge",
    "region": "",
    "country": "br",
    "latitude": -16.616666666667,
    "longitude": -49.216666666667,
    "time": "2015-02-28T18:00:00-03:00",
    "temp": 28,
    "dewpoint": 18,
    "humidity": 55,
    "conditions": "Mostly Sunny",
    "weather_primary_coded": "::FW",
    "clouds_coded": "FW",
    "is_day": true,
    "wind_kph": 7,
    "wind_direction": "WNW"
  },
  "SBAT": {
    "id": "SBAT",
    "city": "alta floresta",
    "region": "",
    "country": "br",
    "latitude": -9.8666666666667,
    "longitude": -56.1,
    "time": "2015-02-28T17:00:00-04:00",
    "temp": 32,
    "dewpoint": 22,
    "humidity": 55,
    "conditions": "Mostly Sunny",
    "weather_primary_coded": "::FW",
    "clouds_coded": "FW",
    "is_day": true,
    "wind_kph": 6,
    "wind_direction": "ESE"
  },