{
  "KQGX": {
    "id": "KQGX",
    "city": "al dhafra",
    "region": "",
    "country": "ae",
    "latitude": 24.25,
    "longitude": 54.533333333333,
    "time": "2015-02-17T07:58:00+04:00",
    "temp": 17,
    "dewpoint": 10,
    "humidity": 64,
    "conditions": "Sunny"
  },
  "OMFJ": {
    "id": "OMFJ",
    "city": "fujairah intl ar",
    "region": "",
    "country": "ae",
    "latitude": 25.1,
    "longitude": 56.316666666667,
    "time": "2015-02-17T08:00:00+04:00",
    "temp": 22,
    "dewpoint": 14,
    "humidity": 61,
    "conditions": "Mostly Sunny"
  },
  "OMAL": {
    "id": "OMAL",
    "city": "al ain intnl arp",
    "region": "",
    "country": "ae",
    "latitude": 24.25,
    "longitude": 55.6,
    "time": "2015-02-17T08:00:00+04:00",
    "temp": 21,
    "dewpoint": 0,
    "humidity": 25,
    "conditions": "Mostly Sunny"
  },
  "OMAD": {
    "id": "OMAD",
    "city": "abu dhabi/bateen",
    "region": "",
    "country": "ae",
    "latitude": 24.416666666667,
    "longitude": 54.466666666667,
    "time": "2015-02-17T08:00:00+04:00",
    "temp": 21,
    "dewpoint": 10,
    "humidity": 50,
    "conditions": "Mostly Sunny"
  },
  "OMDW": {
    "id": "OMDW",
    "city": "dubai al maktoum",
    "region": "",
    "country": "ae",
    "latitude": 24.9,
    "longitude": 55.166666666667,
    "time": "2015-02-17T08:00:00+04:00",
    "temp": 16,
    "dewpoint": 4,
    "humidity": 45,
    "conditions": "Mostly Sunny"
  },
  "OMAA": {
    "id": "OMAA",
    "city": "abu dhabi intl",
    "region": "",
    "country": "ae",
    "latitude": 24.416666666667,
    "longitude": 54.633333333333,
    "time": "2015-02-17T08:00:00+04:00",
    "temp": 19,
    "dewpoint": 8,
    "humidity": 49,
    "conditions": "Mostly Sunny"
  },
  "OMDB": {
    "id": "OMDB",
    "city": "dubai intl airpo",
    "region": "",
    "country": "ae",
    "latitude": 25.25,
    "longitude": 55.366666666667,
    "time": "2015-02-17T08:00:00+04:00",
    "temp": 23,
    "dewpoint": 4,
    "humidity": 29,
    "conditions": "Mostly Sunny"
  },
  "OMRK": {
    "id": "OMRK",
    "city": "ras al khaimah",
    "region": "",
    "country": "ae",
    "latitude": 25.616666666667,
    "longitude": 55.916666666667,
    "time": "2015-02-17T08:00:00+04:00",
    "temp": 16,
    "dewpoint": 6,
    "humidity": 52,
    "conditions": "Mostly Sunny"
  },
  "OMSJ": {
    "id": "OMSJ",
    "city": "sharjah intl arp",
    "region": "",
    "country": "ae",
    "latitude": 25.316666666667,
    "longitude": 55.516666666667,
    "time": "2015-02-17T08:00:00+04:00",
    "temp": 17,
    "dewpoint": 5,
    "humidity": 45,
    "conditions": "Mostly Sunny"
  },
  "OAMS": {
    "id": "OAMS",
    "city": "mazar-i-sharif",
    "region": "",
    "country": "af",
    "latitude": 36.7,
    "longitude": 67.2,
    "time": "2015-02-17T08:20:00+04:30",
    "temp": 8,
    "dewpoint": 8,
    "humidity": 100,
    "conditions": "Cloudy"
  },
  "OAKB": {
    "id": "OAKB",
    "city": "kabul intl (mil)",
    "region": "",
    "country": "af",
    "latitude": 34.55,
    "longitude": 69.216666666667,
    "time": "2015-02-17T08:20:00+04:30",
    "temp": 5,
    "dewpoint": 3,
    "humidity": 87,
    "conditions": "Smoke"
  },
  "OAHR": {
    "id": "OAHR",
    "city": "herat",
    "region": "",
    "country": "af",
    "latitude": 34.216666666667,
    "longitude": 62.216666666667,
    "time": "2015-02-17T08:24:00+04:30",
    "temp": 11,
    "dewpoint": 6,
    "humidity": 72,
    "conditions": "Partly Cloudy"
  },
  "KQCL": {
    "id": "KQCL",
    "city": "fob clark",
    "region": "",
    "country": "af",
    "latitude": 33.35,
    "longitude": 69.733333333333,
    "time": "2015-02-17T08:25:00+04:30",
    "temp": 12,
    "dewpoint": 9,
    "humidity": 82,
    "conditions": "Mostly Sunny"
  },
  "KQSA": {
    "id": "KQSA",
    "city": "bagram",
    "region": "",
    "country": "af",
    "latitude": 34.95,
    "longitude": 69.283333333333,
    "time": "2015-02-17T08:25:00+04:30",
    "temp": 6,
    "dewpoint": 3,
    "humidity": 81,
    "conditions": "Partly Cloudy"
  },
  "KQL5": {
    "id": "KQL5",
    "city": "jalalabad",
    "region": "",
    "country": "af",
    "latitude": 34.416666666667,
    "longitude": 70.466666666667,
    "time": "2015-02-17T08:25:00+04:30",
    "temp": 15,
    "dewpoint": 10,
    "humidity": 72,
    "conditions": "Hazy"
  },
  "KQXT": {
    "id": "KQXT",
    "city": "fob dwyer",
    "region": "",
    "country": "af",
    "latitude": 31.1,
    "longitude": 64.083333333333,
    "time": "2015-02-17T08:25:00+04:30",
    "temp": 14,
    "dewpoint": 4,
    "humidity": 51,
    "conditions": "Partly Cloudy"
  },
  "KQHN": {
    "id": "KQHN",
    "city": "kandahar",
    "region": "",
    "country": "af",
    "latitude": 31.5,
    "longitude": 65.85,
    "time": "2015-02-17T08:25:00+04:30",
    "temp": 12,
    "dewpoint": 2,
    "humidity": 51,
    "conditions": "Mostly Sunny"
  },
  "KQSF": {
    "id": "KQSF",
    "city": "kabul soccer fld",
    "region": "",
    "country": "af",
    "latitude": 34.533333333333,
    "longitude": 69.183333333333,
    "time": "2015-02-17T08:31:00+04:30",
    "temp": 8,
    "dewpoint": 3,
    "humidity": 71,
    "conditions": "Mist and Fog"
  },
  "TKPN": {
    "id": "TKPN",
    "city": "charlestown/newc",
    "region": "",
    "country": "ag",
    "latitude": 17.183333333333,
    "longitude": -62.566666666667,
    "time": "2015-02-16T19:00:00-04:00",
    "temp": 27,
    "dewpoint": 21,
    "humidity": 70,
    "conditions": "Mostly Clear"
  },
  "TAPA": {
    "id": "TAPA",
    "city": "coolidge/antigua",
    "region": "",
    "country": "ag",
    "latitude": 17.116666666667,
    "longitude": -61.783333333333,
    "time": "2015-02-17T00:00:00-04:00",
    "temp": 25,
    "dewpoint": 20,
    "humidity": 74,
    "conditions": "Mostly Clear"
  },
  "LATI": {
    "id": "LATI",
    "city": "tirana",
    "region": "",
    "country": "al",
    "latitude": 41.416666666667,
    "longitude": 19.716666666667,
    "time": "2015-02-17T04:50:00+01:00",
    "temp": -1,
    "dewpoint": -3,
    "humidity": 86,
    "conditions": "Mostly Clear"
  },
  "UDYZ": {
    "id": "UDYZ",
    "city": "zvartnots",
    "region": "",
    "country": "am",
    "latitude": 40.15,
    "longitude": 44.4,
    "time": "2015-02-17T07:30:00+04:00",
    "temp": -1,
    "dewpoint": -4,
    "humidity": 80,
    "conditions": "Mostly Cloudy"
  },
  "UDSG": {
    "id": "UDSG",
    "city": "shirak",
    "region": "",
    "country": "am",
    "latitude": 40.75,
    "longitude": 43.866666666667,
    "time": "2015-02-17T07:30:00+04:00",
    "temp": -7,
    "dewpoint": -8,
    "humidity": 93,
    "conditions": "Light Snow"
  },
  "FNLU": {
    "id": "FNLU",
    "city": "luanda/4 de feve",
    "region": "",
    "country": "ao",
    "latitude": -8.8333333333333,
    "longitude": 13.216666666667,
    "time": "2015-02-17T04:00:00+01:00",
    "temp": 25,
    "dewpoint": 22,
    "humidity": 83,
    "conditions": "Mostly Cloudy"
  },
  "NZSP": {
    "id": "NZSP",
    "city": "amundsen-scott",
    "region": "",
    "country": "aq",
    "latitude": -89.983333333333,
    "longitude": 179.98333333333,
    "time": "2015-02-17T12:50:00+13:00",
    "temp": -45,
    "dewpoint": null,
    "humidity": null,
    "conditions": "Mostly Clear"
  },
  "NZPG": {
    "id": "NZPG",
    "city": "pegasus field",
    "region": "",
    "country": "aq",
    "latitude": -77.95,
    "longitude": 166.51666666667,
    "time": "2015-02-17T15:45:00+13:00",
    "temp": -6,
    "dewpoint": -11,
    "humidity": 68,
    "conditions": "Mostly Clear"
  },
  "SAZB": {
    "id": "SAZB",
    "city": "bahia blanca (mi",
    "region": "",
    "country": "ar",
    "latitude": -38.716666666667,
    "longitude": -62.166666666667,
    "time": "2015-02-16T20:08:00-03:00",
    "temp": 21,
    "dewpoint": 18,
    "humidity": 83,
    "conditions": "Rain"
  },
  "SAMM": {
    "id": "SAMM",
    "city": "malargue airport",
    "region": "",
    "country": "ar",
    "latitude": -35.5,
    "longitude": -69.566666666667,
    "time": "2015-02-16T20:25:00-03:00",
    "temp": 17,
    "dewpoint": 14,
    "humidity": 83,
    "conditions": "Scattered Storms"
  },
  "SARE": {
    "id": "SARE",
    "city": "resistencia airp",
    "region": "",
    "country": "ar",
    "latitude": -27.433333333333,
    "longitude": -59.033333333333,
    "time": "2015-02-16T21:00:00-03:00",
    "temp": 29,
    "dewpoint": 22,
    "humidity": 66,
    "conditions": "Partly Cloudy"
  },
  "SAWG": {
    "id": "SAWG",
    "city": "rio gallegos arp",
    "region": "",
    "country": "ar",
    "latitude": -51.616666666667,
    "longitude": -69.316666666667,
    "time": "2015-02-16T23:00:00-03:00",
    "temp": 12,
    "dewpoint": 1,
    "humidity": 47,
    "conditions": "Mostly Cloudy"
  },
  "SARP": {
    "id": "SARP",
    "city": "posadas airport",
    "region": "",
    "country": "ar",
    "latitude": -27.383333333333,
    "longitude": -55.966666666667,
    "time": "2015-02-16T23:00:00-03:00",
    "temp": 26,
    "dewpoint": 21,
    "humidity": 74,
    "conditions": "Mostly Clear"
  },
  "SAAR": {
    "id": "SAAR",
    "city": "rosario airport",
    "region": "",
    "country": "ar",
    "latitude": -32.916666666667,
    "longitude": -60.766666666667,
    "time": "2015-02-17T00:00:00-03:00",
    "temp": 26,
    "dewpoint": 17,
    "humidity": 58,
    "conditions": "Mostly Clear"
  },
  "SAWE": {
    "id": "SAWE",
    "city": "rio grande airpo",
    "region": "",
    "country": "ar",
    "latitude": -53.783333333333,
    "longitude": -67.75,
    "time": "2015-02-17T00:00:00-03:00",
    "temp": 9,
    "dewpoint": 6,
    "humidity": 82,
    "conditions": "Mostly Cloudy"
  },
  "SAWH": {
    "id": "SAWH",
    "city": "ushuaia (arg-nav",
    "region": "",
    "country": "ar",
    "latitude": -54.85,
    "longitude": -68.3,
    "time": "2015-02-17T00:00:00-03:00",
    "temp": 10,
    "dewpoint": 6,
    "humidity": 76,
    "conditions": "Partly Cloudy"
  },
  "SAME": {
    "id": "SAME",
    "city": "mendoza/el plume",
    "region": "",
    "country": "ar",
    "latitude": -32.816666666667,
    "longitude": -68.766666666667,
    "time": "2015-02-17T00:00:00-03:00",
    "temp": 24,
    "dewpoint": 15,
    "humidity": 57,
    "conditions": "Scattered Storms"
  },
  "SAZM": {
    "id": "SAZM",
    "city": "mar del plata ar",
    "region": "",
    "country": "ar",
    "latitude": -37.916666666667,
    "longitude": -57.566666666667,
    "time": "2015-02-17T00:00:00-03:00",
    "temp": 18,
    "dewpoint": 16,
    "humidity": 88,
    "conditions": "Mostly Clear"
  },
  "SAOC": {
    "id": "SAOC",
    "city": "rio cuarto airpo",
    "region": "",
    "country": "ar",
    "latitude": -33.116666666667,
    "longitude": -64.266666666667,
    "time": "2015-02-17T00:00:00-03:00",
    "temp": 21,
    "dewpoint": 19,
    "humidity": 88,
    "conditions": "Mostly Clear"
  },
  "SARI": {
    "id": "SARI",
    "city": "iguazu/cataratas",
    "region": "",
    "country": "ar",
    "latitude": -25.716666666667,
    "longitude": -54.466666666667,
    "time": "2015-02-17T00:00:00-03:00",
    "temp": 24,
    "dewpoint": 23,
    "humidity": 94,
    "conditions": "Mostly Clear"
  },
  "SASA": {
    "id": "SASA",
    "city": "salta airport",
    "region": "",
    "country": "ar",
    "latitude": -24.85,
    "longitude": -65.466666666667,
    "time": "2015-02-17T00:00:00-03:00",
    "temp": 29,
    "dewpoint": 19,
    "humidity": 55,
    "conditions": "Partly Cloudy"
  },
  "SASJ": {
    "id": "SASJ",
    "city": "jujuy airport",
    "region": "",
    "country": "ar",
    "latitude": -24.366666666667,
    "longitude": -65.1,
    "time": "2015-02-17T00:00:00-03:00",
    "temp": 21,
    "dewpoint": 20,
    "humidity": 94,
    "conditions": "Mostly Clear"
  },
  "SABE": {
    "id": "SABE",
    "city": "aeroparque(civ/m",
    "region": "",
    "country": "ar",
    "latitude": -34.566666666667,
    "longitude": -58.416666666667,
    "time": "2015-02-17T01:00:00-03:00",
    "temp": 24,
    "dewpoint": 21,
    "humidity": 83,
    "conditions": "Partly Cloudy"
  },
  "SAEZ": {
    "id": "SAEZ",
    "city": "buenos aires/eze",
    "region": "",
    "country": "ar",
    "latitude": -34.816666666667,
    "longitude": -58.516666666667,
    "time": "2015-02-17T01:00:00-03:00",
    "temp": 19,
    "dewpoint": 18,
    "humidity": 94,
    "conditions": "Mostly Clear"
  },
  "SANT": {
    "id": "SANT",
    "city": "tucuman/teniente",
    "region": "",
    "country": "ar",
    "latitude": -26.85,
    "longitude": -65.083333333333,
    "time": "2015-02-17T01:00:00-03:00",
    "temp": 23,
    "dewpoint": 22,
    "humidity": 94,
    "conditions": "Mostly Clear"
  },
  "SARL": {
    "id": "SARL",
    "city": "paso de los libr",
    "region": "",
    "country": "ar",
    "latitude": -29.666666666667,
    "longitude": -57.133333333333,
    "time": "2015-02-17T01:00:00-03:00",
    "temp": 23,
    "dewpoint": 20,
    "humidity": 83,
    "conditions": "Mostly Clear"
  },
  "SADF": {
    "id": "SADF",
    "city": "san fernando",
    "region": "",
    "country": "ar",
    "latitude": -34.45,
    "longitude": -58.583333333333,
    "time": "2015-02-17T01:00:00-03:00",
    "temp": 24,
    "dewpoint": 21,
    "humidity": 83,
    "conditions": "Mostly Clear"
  },
  "SARC": {
    "id": "SARC",
    "city": "corrientes airpo",
    "region": "",
    "country": "ar",
    "latitude": -27.433333333333,
    "longitude": -58.766666666667,
    "time": "2015-02-17T01:00:00-03:00",
    "temp": 25,
    "dewpoint": 23,
    "humidity": 89,
    "conditions": "Mostly Clear"
  },
  "SARF": {
    "id": "SARF",
    "city": "formosa airport",
    "region": "",
    "country": "ar",
    "latitude": -26.216666666667,
    "longitude": -58.216666666667,
    "time": "2015-02-17T01:00:00-03:00",
    "temp": 24,
    "dewpoint": 24,
    "humidity": 100,
    "conditions": "Mostly Clear"
  },
  "SACO": {
    "id": "SACO",
    "city": "cordoba airport",
    "region": "",
    "country": "ar",
    "latitude": -31.316666666667,
    "longitude": -64.216666666667,
    "time": "2015-02-17T01:00:00-03:00",
    "temp": 20,
    "dewpoint": 19,
    "humidity": 94,
    "conditions": "Nearby Thunderstorms"
  },
  "SAZS": {
    "id": "SAZS",
    "city": "san carlos baril",
    "region": "",
    "country": "ar",
    "latitude": -41.133333333333,
    "longitude": -71.166666666667,
    "time": "2015-02-17T01:00:00-03:00",
    "temp": 9,
    "dewpoint": -2,
    "humidity": 46,
    "conditions": "Mostly Clear"
  },
  "SAVC": {
    "id": "SAVC",
    "city": "comodoro rivadav",
    "region": "",
    "country": "ar",
    "latitude": -45.766666666667,
    "longitude": -67.466666666667,
    "time": "2015-02-17T01:00:00-03:00",
    "temp": 15,
    "dewpoint": 3,
    "humidity": 45,
    "conditions": "Mostly Clear"
  },
  "SAZN": {
    "id": "SAZN",
    "city": "neuquen airport",
    "region": "",
    "country": "ar",
    "latitude": -38.95,
    "longitude": -68.15,
    "time": "2015-02-17T01:00:00-03:00",
    "temp": 19,
    "dewpoint": 13,
    "humidity": 68,
    "conditions": "Mostly Clear"
  },
  "LOWG": {
    "id": "LOWG",
    "city": "graz (mil/civ)",
    "region": "",
    "country": "at",
    "latitude": 47,
    "longitude": 15.416666666667,
    "time": "2015-02-17T04:50:00+01:00",
    "temp": -4,
    "dewpoint": -4,
    "humidity": 100,
    "conditions": "Patchy Freezing Fog"
  },
  "LOWW": {
    "id": "LOWW",
    "city": "vienna/schwechat",
    "region": "",
    "country": "at",
    "latitude": 48.116666666667,
    "longitude": 16.566666666667,
    "time": "2015-02-17T04:50:00+01:00",
    "temp": 0,
    "dewpoint": -3,
    "humidity": 80,
    "conditions": "Mostly Clear"
  },
  "LOWK": {
    "id": "LOWK",
    "city": "klagenfurt(civ/m",
    "region": "",
    "country": "at",
    "latitude": 46.65,
    "longitude": 14.316666666667,
    "time": "2015-02-17T04:50:00+01:00",
    "temp": -4,
    "dewpoint": -5,
    "humidity": 93,
    "conditions": "Patchy Freezing Fog"
  },
  "LOWI": {
    "id": "LOWI",
    "city": "innsbruck airpor",
    "region": "",
    "country": "at",
    "latitude": 47.266666666667,
    "longitude": 11.333333333333,
    "time": "2015-02-17T04:50:00+01:00",
    "temp": -1,
    "dewpoint": -4,
    "humidity": 80,
    "conditions": "Mostly Clear"
  },
  "LOXZ": {
    "id": "LOXZ",
    "city": "zeltweg (mil)",
    "region": "",
    "country": "at",
    "latitude": 47.2,
    "longitude": 14.75,
    "time": "2015-02-17T04:50:00+01:00",
    "temp": -8,
    "dewpoint": -9,
    "humidity": 93,
    "conditions": "Freezing Fog"
  },
  "LOWS": {
    "id": "LOWS",
    "city": "salzburg airport",
    "region": "",
    "country": "at",
    "latitude": 47.783333333333,
    "longitude": 13.016666666667,
    "time": "2015-02-17T04:50:00+01:00",
    "temp": -6,
    "dewpoint": -6,
    "humidity": 100,
    "conditions": "Freezing Fog"
  },
  "LOWL": {
    "id": "LOWL",
    "city": "linz (civ/mil)",
    "region": "",
    "country": "at",
    "latitude": 48.216666666667,
    "longitude": 14.183333333333,
    "time": "2015-02-17T04:50:00+01:00",
    "temp": -2,
    "dewpoint": -4,
    "humidity": 86,
    "conditions": "Mostly Clear"
  },
  "YNTN": {
    "id": "YNTN",
    "city": "normanton",
    "region": "",
    "country": "au",
    "latitude": -17.683333333333,
    "longitude": 141.06666666667,
    "time": "2015-02-17T13:00:00+10:00",
    "temp": 35,
    "dewpoint": 16,
    "humidity": 32,
    "conditions": "Mostly Sunny"
  },
  "YCAS": {
    "id": "YCAS",
    "city": "casino airport",
    "region": "",
    "country": "au",
    "latitude": -28.883333333333,
    "longitude": 153.06666666667,
    "time": "2015-02-17T14:00:00+11:00",
    "temp": 27,
    "dewpoint": 18,
    "humidity": 58,
    "conditions": "Mostly Sunny"
  },
  "YCBA": {
    "id": "YCBA",
    "city": "cobar airport",
    "region": "",
    "country": "au",
    "latitude": -31.533333333333,
    "longitude": 145.8,
    "time": "2015-02-17T14:00:00+11:00",
    "temp": 33,
    "dewpoint": 13,
    "humidity": 30,
    "conditions": "Mostly Sunny"
  },
  "YCBB": {
    "id": "YCBB",
    "city": "coonabarabran",
    "region": "",
    "country": "au",
    "latitude": -31.333333333333,
    "longitude": 149.26666666667,
    "time": "2015-02-17T14:00:00+11:00",
    "temp": 29,
    "dewpoint": 12,
    "humidity": 35,
    "conditions": "Mostly Sunny"
  },
  "YCNM": {
    "id": "YCNM",
    "city": "coonamble",
    "region": "",
    "country": "au",
    "latitude": -30.983333333333,
    "longitude": 148.38333333333,
    "time": "2015-02-17T14:00:00+11:00",
    "temp": 33,
    "dewpoint": 12,
    "humidity": 28,
    "conditions": "Mostly Sunny"
  },
  "YCCY": {
    "id": "YCCY",
    "city": "cloncurry",
    "region": "",
    "country": "au",
    "latitude": -20.666666666667,
    "longitude": 140.5,
    "time": "2015-02-17T13:00:00+10:00",
    "temp": 36,
    "dewpoint": 12,
    "humidity": 23,
    "conditions": "Mostly Sunny"
  },
  "YLEC": {
    "id": "YLEC",
    "city": "leigh creek",
    "region": "",
    "country": "au",
    "latitude": -30.6,
    "longitude": 138.43333333333,
    "time": "2015-02-17T13:30:00+10:30",
    "temp": 34,
    "dewpoint": 9,
    "humidity": 21,
    "conditions": "Mostly Sunny"
  },
  "YBWX": {
    "id": "YBWX",
    "city": "barrow island",
    "region": "",
    "country": "au",
    "latitude": -20.883333333333,
    "longitude": 115.4,
    "time": "2015-02-17T11:00:00+08:00",
    "temp": 32,
    "dewpoint": 25,
    "humidity": 67,
    "conditions": "Mostly Sunny"
  },
  "YBDV": {
    "id": "YBDV",
    "city": "birdsville",
    "region": "",
    "country": "au",
    "latitude": -25.9,
    "longitude": 139.35,
    "time": "2015-02-17T13:00:00+10:00",
    "temp": 42,
    "dewpoint": 7,
    "humidity": 12,
    "conditions": "Mostly Sunny"
  },
  "YDBY": {
    "id": "YDBY",
    "city": "derby",
    "region": "",
    "country": "au",
    "latitude": -17.366666666667,
    "longitude": 123.66666666667,
    "time": "2015-02-17T11:00:00+08:00",
    "temp": 35,
    "dewpoint": 24,
    "humidity": 53,
    "conditions": "Mostly Sunny"
  },
  "YNAR": {
    "id": "YNAR",
    "city": "narrandera",
    "region": "",
    "country": "au",
    "latitude": -34.7,
    "longitude": 146.51666666667,
    "time": "2015-02-17T14:00:00+11:00",
    "temp": 33,
    "dewpoint": 13,
    "humidity": 30,
    "conditions": "Mostly Sunny"
  },
  "YNBR": {
    "id": "YNBR",
    "city": "narrabri",
    "region": "",
    "country": "au",
    "latitude": -30.316666666667,
    "longitude": 149.83333333333,
    "time": "2015-02-17T14:00:00+11:00",
    "temp": 32,
    "dewpoint": 13,
    "humidity": 31,
    "conditions": "Mostly Sunny"
  },
  "YSNW": {
    "id": "YSNW",
    "city": "nowra (aus-navy)",
    "region": "",
    "country": "au",
    "latitude": -34.95,
    "longitude": 150.51666666667,
    "time": "2015-02-17T14:00:00+11:00",
    "temp": 28,
    "dewpoint": 18,
    "humidity": 55,
    "conditions": "Mostly Sunny"
  },
  "YMTG": {
    "id": "YMTG",
    "city": "mount gambier",
    "region": "",
    "country": "au",
    "latitude": -37.75,
    "longitude": 140.78333333333,
    "time": "2015-02-17T13:30:00+10:30",
    "temp": 22,
    "dewpoint": 11,
    "humidity": 50,
    "conditions": "Mostly Cloudy"
  },
  "YABA": {
    "id": "YABA",
    "city": "albany airport",
    "region": "",
    "country": "au",
    "latitude": -34.933333333333,
    "longitude": 117.8,
    "time": "2015-02-17T11:00:00+08:00",
    "temp": 24,
    "dewpoint": 15,
    "humidity": 57,
    "conditions": "Partly Cloudy"
  },
  "YAYE": {
    "id": "YAYE",
    "city": "ayers rock",
    "region": "",
    "country": "au",
    "latitude": -25.183333333333,
    "longitude": 130.98333333333,
    "time": "2015-02-17T12:30:00+09:30",
    "temp": 36,
    "dewpoint": 9,
    "humidity": 19,
    "conditions": "Mostly Sunny"
  },
  "YOLD": {
    "id": "YOLD",
    "city": "olympic dam arpt",
    "region": "",
    "country": "au",
    "latitude": -30.483333333333,
    "longitude": 136.88333333333,
    "time": "2015-02-17T13:30:00+10:30",
    "temp": 33,
    "dewpoint": 9,
    "humidity": 23,
    "conditions": "Mostly Sunny"
  },
  "YBHI": {
    "id": "YBHI",
    "city": "broken hill",
    "region": "",
    "country": "au",
    "latitude": -32,
    "longitude": 141.46666666667,
    "time": "2015-02-17T13:30:00+10:30",
    "temp": 30,
    "dewpoint": 10,
    "humidity": 29,
    "conditions": "Mostly Sunny"
  },
  "YESP": {
    "id": "YESP",
    "city": "esperance arpt",
    "region": "",
    "country": "au",
    "latitude": -33.683333333333,
    "longitude": 121.81666666667,
    "time": "2015-02-17T11:00:00+08:00",
    "temp": 29,
    "dewpoint": 14,
    "humidity": 40,
    "conditions": "Mostly Sunny"
  },
  "YGFN": {
    "id": "YGFN",
    "city": "grafton arpt",
    "region": "",
    "country": "au",
    "latitude": -29.766666666667,
    "longitude": 153.03333333333,
    "time": "2015-02-17T14:00:00+11:00",
    "temp": 28,
    "dewpoint": 17,
    "humidity": 51,
    "conditions": "Partly Cloudy"
  },
  "YBNA": {
    "id": "YBNA",
    "city": "ballina byron g.",
    "region": "",
    "country": "au",
    "latitude": -28.833333333333,
    "longitude": 153.56666666667,
    "time": "2015-02-17T14:00:00+11:00",
    "temp": 28,
    "dewpoint": 19,
    "humidity": 58,
    "conditions": "Mostly Sunny"
  },
  "YBPN": {
    "id": "YBPN",
    "city": "prosperine airpo",
    "region": "",
    "country": "au",
    "latitude": -20.5,
    "longitude": 148.55,
    "time": "2015-02-17T13:00:00+10:00",
    "temp": 29,
    "dewpoint": 21,
    "humidity": 62,
    "conditions": "Mostly Sunny"
  },
  "YEML": {
    "id": "YEML",
    "city": "emerald arpt",
    "region": "",
    "country": "au",
    "latitude": -24.566666666667,
    "longitude": 148.18333333333,
    "time": "2015-02-17T13:00:00+10:00",
    "temp": 32,
    "dewpoint": 13,
    "humidity": 31,
    "conditions": "Partly Cloudy"
  },
  "YGLA": {
    "id": "YGLA",
    "city": "gladstone",
    "region": "",
    "country": "au",
    "latitude": -23.866666666667,
    "longitude": 151.21666666667,
    "time": "2015-02-17T13:00:00+10:00",
    "temp": 29,
    "dewpoint": 18,
    "humidity": 51,
    "conditions": "Partly Cloudy"
  },
  "YCAR": {
    "id": "YCAR",
    "city": "carnarvon",
    "region": "",
    "country": "au",
    "latitude": -24.883333333333,
    "longitude": 113.66666666667,
    "time": "2015-02-17T11:00:00+08:00",
    "temp": 34,
    "dewpoint": 21,
    "humidity": 47,
    "conditions": "Mostly Sunny"
  },
  "YLIS": {
    "id": "YLIS",
    "city": "lismore arpt",
    "region": "",
    "country": "au",
    "latitude": -28.833333333333,
    "longitude": 153.26666666667,
    "time": "2015-02-17T14:00:00+11:00",
    "temp": 26,
    "dewpoint": 19,
    "humidity": 65,
    "conditions": "Mostly Sunny"
  },
  "YBOK": {
    "id": "YBOK",
    "city": "oakey (army/civ)",
    "region": "",
    "country": "au",
    "latitude": -27.416666666667,
    "longitude": 151.71666666667,
    "time": "2015-02-17T13:00:00+10:00",
    "temp": 27,
    "dewpoint": 12,
    "humidity": 39,
    "conditions": "Partly Cloudy"
  },
  "YBMK": {
    "id": "YBMK",
    "city": "mackay",
    "region": "",
    "country": "au",
    "latitude": -21.116666666667,
    "longitude": 149.21666666667,
    "time": "2015-02-17T13:00:00+10:00",
    "temp": 29,
    "dewpoint": 23,
    "humidity": 70,
    "conditions": "Mostly Sunny"
  },
  "YBCV": {
    "id": "YBCV",
    "city": "charleville arpt",
    "region": "",
    "country": "au",
    "latitude": -26.383333333333,
    "longitude": 146.26666666667,
    "time": "2015-02-17T13:00:00+10:00",
    "temp": 34,
    "dewpoint": 11,
    "humidity": 24,
    "conditions": "Partly Cloudy"
  },
  "YGTH": {
    "id": "YGTH",
    "city": "griffith arpt",
    "region": "",
    "country": "au",
    "latitude": -34.25,
    "longitude": 146.06666666667,
    "time": "2015-02-17T14:00:00+11:00",
    "temp": 31,
    "dewpoint": 13,
    "humidity": 33,
    "conditions": "Partly Cloudy"
  },
  "YCDU": {
    "id": "YCDU",
    "city": "ceduna airport",
    "region": "",
    "country": "au",
    "latitude": -32.116666666667,
    "longitude": 133.7,
    "time": "2015-02-17T13:30:00+10:30",
    "temp": 23,
    "dewpoint": 15,
    "humidity": 61,
    "conditions": "Mostly Sunny"
  },
  "YCOM": {
    "id": "YCOM",
    "city": "cooma snowy mtns",
    "region": "",
    "country": "au",
    "latitude": -36.3,
    "longitude": 148.96666666667,
    "time": "2015-02-17T14:00:00+11:00",
    "temp": 25,
    "dewpoint": 15,
    "humidity": 54,
    "conditions": "Partly Cloudy"
  },
  "YPBO": {
    "id": "YPBO",
    "city": "paraburdoo",
    "region": "",
    "country": "au",
    "latitude": -23.2,
    "longitude": 117.75,
    "time": "2015-02-17T11:00:00+08:00",
    "temp": 40,
    "dewpoint": 12,
    "humidity": 19,
    "conditions": "Mostly Sunny"
  },
  "YGTE": {
    "id": "YGTE",
    "city": "groote eylandt",
    "region": "",
    "country": "au",
    "latitude": -13.966666666667,
    "longitude": 136.45,
    "time": "2015-02-17T12:30:00+09:30",
    "temp": 31,
    "dewpoint": 26,
    "humidity": 75,
    "conditions": "Mostly Sunny"
  },
  "YCBP": {
    "id": "YCBP",
    "city": "coober pedy",
    "region": "",
    "country": "au",
    "latitude": -29.033333333333,
    "longitude": 134.71666666667,
    "time": "2015-02-17T13:30:00+10:30",
    "temp": 34,
    "dewpoint": 7,
    "humidity": 19,
    "conditions": "Mostly Sunny"
  },
  "YARG": {
    "id": "YARG",
    "city": "argyle aero",
    "region": "",
    "country": "au",
    "latitude": -16.633333333333,
    "longitude": 128.45,
    "time": "2015-02-17T11:00:00+08:00",
    "temp": 39,
    "dewpoint": 10,
    "humidity": 17,
    "conditions": "Mostly Sunny"
  },
  "YNWN": {
    "id": "YNWN",
    "city": "newman arpt",
    "region": "",
    "country": "au",
    "latitude": -23.416666666667,
    "longitude": 119.8,
    "time": "2015-02-17T11:00:00+08:00",
    "temp": 41,
    "dewpoint": 9,
    "humidity": 14,
    "conditions": "Mostly Sunny"
  },
  "YRMD": {
    "id": "YRMD",
    "city": "richmond",
    "region": "",
    "country": "au",
    "latitude": -20.7,
    "longitude": 143.11666666667,
    "time": "2015-02-17T13:21:00+10:00",
    "temp": 37,
    "dewpoint": 14,
    "humidity": 25,
    "conditions": "Mostly Sunny"
  },
  "YPAD": {
    "id": "YPAD",
    "city": "adelaide intl ar",
    "region": "",
    "country": "au",
    "latitude": -34.95,
    "longitude": 138.51666666667,
    "time": "2015-02-17T14:00:00+10:30",
    "temp": 23,
    "dewpoint": 14,
    "humidity": 57,
    "conditions": "Mostly Sunny"
  },
  "YPDN": {
    "id": "YPDN",
    "city": "darwin (civ/mil)",
    "region": "",
    "country": "au",
    "latitude": -12.416666666667,
    "longitude": 130.9,
    "time": "2015-02-17T13:00:00+09:30",
    "temp": 32,
    "dewpoint": 25,
    "humidity": 67,
    "conditions": "Mostly Cloudy"
  },
  "YSSY": {
    "id": "YSSY",
    "city": "sydney intl airp",
    "region": "",
    "country": "au",
    "latitude": -33.95,
    "longitude": 151.16666666667,
    "time": "2015-02-17T14:30:00+11:00",
    "temp": 28,
    "dewpoint": 15,
    "humidity": 45,
    "conditions": "Mostly Sunny"
  },
  "YBAS": {
    "id": "YBAS",
    "city": "alice springs ar",
    "region": "",
    "country": "au",
    "latitude": -23.8,
    "longitude": 133.9,
    "time": "2015-02-17T13:00:00+09:30",
    "temp": 36,
    "dewpoint": 8,
    "humidity": 18,
    "conditions": "Mostly Sunny"
  },
  "YHID": {
    "id": "YHID",
    "city": "horn island",
    "region": "",
    "country": "au",
    "latitude": -10.583333333333,
    "longitude": 142.3,
    "time": "2015-02-17T13:30:00+10:00",
    "temp": 27,
    "dewpoint": 23,
    "humidity": 79,
    "conditions": "Partly Cloudy"
  },
  "YPCC": {
    "id": "YPCC",
    "city": "cocos isl intl a",
    "region": "",
    "country": "au",
    "latitude": -12.166666666667,
    "longitude": 96.816666666667,
    "time": "2015-02-17T10:00:00+06:30",
    "temp": 30,
    "dewpoint": 22,
    "humidity": 62,
    "conditions": "Mostly Sunny"
  },
  "YPPH": {
    "id": "YPPH",
    "city": "perth intl/belmo",
    "region": "",
    "country": "au",
    "latitude": -31.933333333333,
    "longitude": 115.98333333333,
    "time": "2015-02-17T11:30:00+08:00",
    "temp": 31,
    "dewpoint": 12,
    "humidity": 31,
    "conditions": "Mostly Sunny"
  },
  "YBTL": {
    "id": "YBTL",
    "city": "townsville(civ/m",
    "region": "",
    "country": "au",
    "latitude": -19.25,
    "longitude": 146.75,
    "time": "2015-02-17T13:30:00+10:00",
    "temp": 32,
    "dewpoint": 17,
    "humidity": 41,
    "conditions": "Partly Cloudy"
  },
  "YGEL": {
    "id": "YGEL",
    "city": "geraldton",
    "region": "",
    "country": "au",
    "latitude": -28.8,
    "longitude": 114.7,
    "time": "2015-02-17T11:30:00+08:00",
    "temp": 35,
    "dewpoint": 16,
    "humidity": 32,
    "conditions": "Mostly Cloudy"
  },
  "YBCS": {
    "id": "YBCS",
    "city": "cairns airport",
    "region": "",
    "country": "au",
    "latitude": -16.866666666667,
    "longitude": 145.75,
    "time": "2015-02-17T13:30:00+10:00",
    "temp": 31,
    "dewpoint": 21,
    "humidity": 55,
    "conditions": "Mostly Cloudy"
  },
  "YCFS": {
    "id": "YCFS",
    "city": "coffs harbour",
    "region": "",
    "country": "au",
    "latitude": -30.316666666667,
    "longitude": 153.11666666667,
    "time": "2015-02-17T13:30:00+10:00",
    "temp": 27,
    "dewpoint": 18,
    "humidity": 58,
    "conditions": "Mostly Sunny"
  },
  "YBBN": {
    "id": "YBBN",
    "city": "brisbane intl ar",
    "region": "",
    "country": "au",
    "latitude": -27.383333333333,
    "longitude": 153.13333333333,
    "time": "2015-02-17T13:30:00+10:00",
    "temp": 28,
    "dewpoint": 17,
    "humidity": 51,
    "conditions": "Partly Cloudy"
  },
  "YPJT": {
    "id": "YPJT",
    "city": "jandakot",
    "region": "",
    "country": "au",
    "latitude": -32.1,
    "longitude": 115.88333333333,
    "time": "2015-02-17T11:30:00+08:00",
    "temp": 30,
    "dewpoint": 13,
    "humidity": 35,
    "conditions": "Mostly Sunny"
  },
  "YPLM": {
    "id": "YPLM",
    "city": "learmouth",
    "region": "",
    "country": "au",
    "latitude": -22.216666666667,
    "longitude": 114.06666666667,
    "time": "2015-02-17T11:30:00+08:00",
    "temp": 39,
    "dewpoint": 19,
    "humidity": 31,
    "conditions": "Mostly Sunny"
  },
  "YBWP": {
    "id": "YBWP",
    "city": "weipa city",
    "region": "",
    "country": "au",
    "latitude": -12.616666666667,
    "longitude": 141.86666666667,
    "time": "2015-02-17T13:30:00+10:00",
    "temp": 26,
    "dewpoint": 24,
    "humidity": 89,
    "conditions": "Showers Nearby"
  },
  "YPWR": {
    "id": "YPWR",
    "city": "woomera (aus-afb",
    "region": "",
    "country": "au",
    "latitude": -31.116666666667,
    "longitude": 136.81666666667,
    "time": "2015-02-17T14:00:00+10:30",
    "temp": 31,
    "dewpoint": 4,
    "humidity": 18,
    "conditions": "Mostly Sunny"
  },
  "YPTN": {
    "id": "YPTN",
    "city": "katherine/tindal",
    "region": "",
    "country": "au",
    "latitude": -14.516666666667,
    "longitude": 132.38333333333,
    "time": "2015-02-17T13:00:00+09:30",
    "temp": 35,
    "dewpoint": 22,
    "humidity": 47,
    "conditions": "Mostly Sunny"
  },
  "YPKU": {
    "id": "YPKU",
    "city": "kununurra airpor",
    "region": "",
    "country": "au",
    "latitude": -15.766666666667,
    "longitude": 128.68333333333,
    "time": "2015-02-17T11:30:00+08:00",
    "temp": 38,
    "dewpoint": 20,
    "humidity": 35,
    "conditions": "Mostly Sunny"
  },
  "YHUG": {
    "id": "YHUG",
    "city": "hughenden arpt",
    "region": "",
    "country": "au",
    "latitude": -20.816666666667,
    "longitude": 144.23333333333,
    "time": "2015-02-17T13:50:00+10:00",
    "temp": 35,
    "dewpoint": 9,
    "humidity": 20,
    "conditions": "Mostly Sunny"
  },
  "YBUD": {
    "id": "YBUD",
    "city": "bundaberg",
    "region": "",
    "country": "au",
    "latitude": -24.9,
    "longitude": 152.31666666667,
    "time": "2015-02-17T13:55:00+10:00",
    "temp": 30,
    "dewpoint": 17,
    "humidity": 46,
    "conditions": "Mostly Sunny"
  },
  "YLRE": {
    "id": "YLRE",
    "city": "longreach arpt",
    "region": "",
    "country": "au",
    "latitude": -23.433333333333,
    "longitude": 144.28333333333,
    "time": "2015-02-17T13:59:00+10:00",
    "temp": 36,
    "dewpoint": 9,
    "humidity": 19,
    "conditions": "Mostly Sunny"
  },
  "YFRT": {
    "id": "YFRT",
    "city": "forrest",
    "region": "",
    "country": "au",
    "latitude": -30.833333333333,
    "longitude": 128.11666666667,
    "time": "2015-02-17T12:00:00+08:00",
    "temp": 29,
    "dewpoint": 12,
    "humidity": 35,
    "conditions": "Mostly Sunny"
  },
  "YWGT": {
    "id": "YWGT",
    "city": "wangaratta arp",
    "region": "",
    "country": "au",
    "latitude": -36.416666666667,
    "longitude": 146.3,
    "time": "2015-02-17T15:00:00+11:00",
    "temp": 33,
    "dewpoint": 8,
    "humidity": 21,
    "conditions": "Mostly Sunny"
  },
  "YTEF": {
    "id": "YTEF",
    "city": "telfer airport",
    "region": "",
    "country": "au",
    "latitude": -21.716666666667,
    "longitude": 122.23333333333,
    "time": "2015-02-17T12:00:00+08:00",
    "temp": 43,
    "dewpoint": 10,
    "humidity": 14,
    "conditions": "Mostly Sunny"
  },
  "YMLT": {
    "id": "YMLT",
    "city": "launceston airpo",
    "region": "",
    "country": "au",
    "latitude": -41.516666666667,
    "longitude": 147.18333333333,
    "time": "2015-02-17T15:00:00+11:00",
    "temp": 22,
    "dewpoint": 13,
    "humidity": 57,
    "conditions": "Cloudy"
  },
  "YMAV": {
    "id": "YMAV",
    "city": "avalon airport",
    "region": "",
    "country": "au",
    "latitude": -38.033333333333,
    "longitude": 144.48333333333,
    "time": "2015-02-17T15:00:00+11:00",
    "temp": 19,
    "dewpoint": 14,
    "humidity": 73,
    "conditions": "Cloudy"
  },
  "YMEN": {
    "id": "YMEN",
    "city": "melbourne/essend",
    "region": "",
    "country": "au",
    "latitude": -37.716666666667,
    "longitude": 144.9,
    "time": "2015-02-17T15:00:00+11:00",
    "temp": 20,
    "dewpoint": 14,
    "humidity": 69,
    "conditions": "Cloudy"
  },
  "YPXM": {
    "id": "YPXM",
    "city": "christmas isl (p",
    "region": "",
    "country": "au",
    "latitude": -10.45,
    "longitude": 105.66666666667,
    "time": "2015-02-17T11:00:00+07:00",
    "temp": 26,
    "dewpoint": 24,
    "humidity": 89,
    "conditions": "Mostly Cloudy"
  },
  "YMHB": {
    "id": "YMHB",
    "city": "hobart/tasmania",
    "region": "",
    "country": "au",
    "latitude": -42.816666666667,
    "longitude": 147.51666666667,
    "time": "2015-02-17T15:00:00+11:00",
    "temp": 19,
    "dewpoint": 13,
    "humidity": 68,
    "conditions": "Mostly Cloudy"
  },
  "YMAY": {
    "id": "YMAY",
    "city": "albury airport",
    "region": "",
    "country": "au",
    "latitude": -36.066666666667,
    "longitude": 146.93333333333,
    "time": "2015-02-17T15:00:00+11:00",
    "temp": 33,
    "dewpoint": 11,
    "humidity": 26,
    "conditions": "Mostly Sunny"
  },
  "YSCB": {
    "id": "YSCB",
    "city": "canberra (civ/mi",
    "region": "",
    "country": "au",
    "latitude": -35.283333333333,
    "longitude": 149.16666666667,
    "time": "2015-02-17T15:00:00+11:00",
    "temp": 31,
    "dewpoint": 12,
    "humidity": 31,
    "conditions": "Scattered Storms"
  },
  "YPKG": {
    "id": "YPKG",
    "city": "kalgoorlie/bould",
    "region": "",
    "country": "au",
    "latitude": -30.766666666667,
    "longitude": 121.45,
    "time": "2015-02-17T12:00:00+08:00",
    "temp": 33,
    "dewpoint": 8,
    "humidity": 21,
    "conditions": "Mostly Sunny"
  },
  "YMER": {
    "id": "YMER",
    "city": "merimbula arpt",
    "region": "",
    "country": "au",
    "latitude": -36.916666666667,
    "longitude": 149.9,
    "time": "2015-02-17T15:00:00+11:00",
    "temp": 26,
    "dewpoint": 19,
    "humidity": 65,
    "conditions": "Mostly Sunny"
  },
  "YPGV": {
    "id": "YPGV",
    "city": "gove airport",
    "region": "",
    "country": "au",
    "latitude": -12.266666666667,
    "longitude": 136.81666666667,
    "time": "2015-02-17T13:30:00+09:30",
    "temp": 27,
    "dewpoint": 24,
    "humidity": 84,
    "conditions": "Mostly Cloudy"
  },
  "YBRM": {
    "id": "YBRM",
    "city": "broome airport",
    "region": "",
    "country": "au",
    "latitude": -17.933333333333,
    "longitude": 122.21666666667,
    "time": "2015-02-17T12:00:00+08:00",
    "temp": 34,
    "dewpoint": 26,
    "humidity": 63,
    "conditions": "Mostly Sunny"
  },
  "YPEA": {
    "id": "YPEA",
    "city": "pearce (aus-afb)",
    "region": "",
    "country": "au",
    "latitude": -31.666666666667,
    "longitude": 116.01666666667,
    "time": "2015-02-17T12:00:00+08:00",
    "temp": 31,
    "dewpoint": 13,
    "humidity": 33,
    "conditions": "Mostly Sunny"
  },
  "YWLM": {
    "id": "YWLM",
    "city": "williamtown arp",
    "region": "",
    "country": "au",
    "latitude": -32.8,
    "longitude": 151.83333333333,
    "time": "2015-02-17T15:00:00+11:00",
    "temp": 28,
    "dewpoint": 16,
    "humidity": 48,
    "conditions": "Mostly Sunny"
  },
  "YSWG": {
    "id": "YSWG",
    "city": "wagga wagga(cv/m",
    "region": "",
    "country": "au",
    "latitude": -35.133333333333,
    "longitude": 147.46666666667,
    "time": "2015-02-17T15:00:00+11:00",
    "temp": 28,
    "dewpoint": 14,
    "humidity": 42,
    "conditions": "Mostly Cloudy"
  },
  "YSTW": {
    "id": "YSTW",
    "city": "tamworth airport",
    "region": "",
    "country": "au",
    "latitude": -31.066666666667,
    "longitude": 150.85,
    "time": "2015-02-17T15:00:00+11:00",
    "temp": 31,
    "dewpoint": 8,
    "humidity": 24,
    "conditions": "Partly Cloudy"
  },
  "YBCG": {
    "id": "YBCG",
    "city": "coolangatta aws",
    "region": "",
    "country": "au",
    "latitude": -28.166666666667,
    "longitude": 153.5,
    "time": "2015-02-17T15:00:00+11:00",
    "temp": 28,
    "dewpoint": 19,
    "humidity": 58,
    "conditions": "Partly Cloudy"
  },
  "YSRI": {
    "id": "YSRI",
    "city": "richmond (aus-af",
    "region": "",
    "country": "au",
    "latitude": -33.6,
    "longitude": 150.76666666667,
    "time": "2015-02-17T15:00:00+11:00",
    "temp": 30,
    "dewpoint": 16,
    "humidity": 43,
    "conditions": "Partly Cloudy"
  },
  "YBRK": {
    "id": "YBRK",
    "city": "rockhampton airp",
    "region": "",
    "country": "au",
    "latitude": -23.366666666667,
    "longitude": 150.46666666667,
    "time": "2015-02-17T14:00:00+10:00",
    "temp": 28,
    "dewpoint": 18,
    "humidity": 55,
    "conditions": "Partly Cloudy"
  },
  "YMEK": {
    "id": "YMEK",
    "city": "meekatharra arpt",
    "region": "",
    "country": "au",
    "latitude": -26.616666666667,
    "longitude": 118.55,
    "time": "2015-02-17T12:00:00+08:00",
    "temp": 40,
    "dewpoint": 7,
    "humidity": 13,
    "conditions": "Mostly Sunny"
  },
  "YAMB": {
    "id": "YAMB",
    "city": "amberley",
    "region": "",
    "country": "au",
    "latitude": -27.633333333333,
    "longitude": 152.71666666667,
    "time": "2015-02-17T14:00:00+10:00",
    "temp": 26,
    "dewpoint": 18,
    "humidity": 61,
    "conditions": "Showers Nearby"
  },
  "YWHA": {
    "id": "YWHA",
    "city": "whyalla airport",
    "region": "",
    "country": "au",
    "latitude": -33.066666666667,
    "longitude": 137.51666666667,
    "time": "2015-02-17T14:30:00+10:30",
    "temp": 25,
    "dewpoint": 14,
    "humidity": 51,
    "conditions": "Mostly Sunny"
  },
  "YMIA": {
    "id": "YMIA",
    "city": "mildura arpt",
    "region": "",
    "country": "au",
    "latitude": -34.233333333333,
    "longitude": 142.08333333333,
    "time": "2015-02-17T15:00:00+11:00",
    "temp": 28,
    "dewpoint": 10,
    "humidity": 32,
    "conditions": "Mostly Sunny"
  },
  "YSDU": {
    "id": "YSDU",
    "city": "dubbo",
    "region": "",
    "country": "au",
    "latitude": -32.216666666667,
    "longitude": 148.56666666667,
    "time": "2015-02-17T15:00:00+11:00",
    "temp": 32,
    "dewpoint": 15,
    "humidity": 36,
    "conditions": "Partly Cloudy"
  },
  "YMOR": {
    "id": "YMOR",
    "city": "moree arpt",
    "region": "",
    "country": "au",
    "latitude": -29.5,
    "longitude": 149.85,
    "time": "2015-02-17T15:00:00+11:00",
    "temp": 32,
    "dewpoint": 11,
    "humidity": 27,
    "conditions": "Mostly Sunny"
  },
  "YMDG": {
    "id": "YMDG",
    "city": "mudgee arpt",
    "region": "",
    "country": "au",
    "latitude": -32.566666666667,
    "longitude": 149.61666666667,
    "time": "2015-02-17T15:00:00+11:00",
    "temp": 30,
    "dewpoint": 13,
    "humidity": 35,
    "conditions": "Mostly Sunny"
  },
  "YBMA": {
    "id": "YBMA",
    "city": "mount isa airpor",
    "region": "",
    "country": "au",
    "latitude": -20.666666666667,
    "longitude": 139.46666666667,
    "time": "2015-02-17T14:00:00+10:00",
    "temp": 37,
    "dewpoint": 12,
    "humidity": 22,
    "conditions": "Mostly Sunny"
  },
  "YPPD": {
    "id": "YPPD",
    "city": "port hedland arr",
    "region": "",
    "country": "au",
    "latitude": -20.366666666667,
    "longitude": 118.61666666667,
    "time": "2015-02-17T12:00:00+08:00",
    "temp": 37,
    "dewpoint": 27,
    "humidity": 57,
    "conditions": "Mostly Sunny"
  },
  "YTRE": {
    "id": "YTRE",
    "city": "taree airport",
    "region": "",
    "country": "au",
    "latitude": -31.883333333333,
    "longitude": 152.51666666667,
    "time": "2015-02-17T15:00:00+11:00",
    "temp": 28,
    "dewpoint": 15,
    "humidity": 45,
    "conditions": "Mostly Sunny"
  },
  "YCIN": {
    "id": "YCIN",
    "city": "curtin/derby",
    "region": "",
    "country": "au",
    "latitude": -17.566666666667,
    "longitude": 123.83333333333,
    "time": "2015-02-17T12:00:00+08:00",
    "temp": 37,
    "dewpoint": 24,
    "humidity": 47,
    "conditions": "Mostly Sunny"
  },
  "YTNK": {
    "id": "YTNK",
    "city": "tennant creek",
    "region": "",
    "country": "au",
    "latitude": -19.633333333333,
    "longitude": 134.18333333333,
    "time": "2015-02-17T13:30:00+09:30",
    "temp": 38,
    "dewpoint": 10,
    "humidity": 18,
    "conditions": "Mostly Sunny"
  },
  "YMML": {
    "id": "YMML",
    "city": "melbourne intl a",
    "region": "",
    "country": "au",
    "latitude": -37.666666666667,
    "longitude": 144.81666666667,
    "time": "2015-02-17T15:00:00+11:00",
    "temp": 20,
    "dewpoint": 13,
    "humidity": 64,
    "conditions": "Mostly Cloudy"
  },
  "YKRY": {
    "id": "YKRY",
    "city": "kingaroy arpt",
    "region": "",
    "country": "au",
    "latitude": -26.566666666667,
    "longitude": 151.83333333333,
    "time": "2015-02-17T14:01:00+10:00",
    "temp": 28,
    "dewpoint": 13,
    "humidity": 40,
    "conditions": "Mostly Sunny"
  },
  "YSNF": {
    "id": "YSNF",
    "city": "norfolk island a",
    "region": "",
    "country": "au",
    "latitude": -29.016666666667,
    "longitude": 167.91666666667,
    "time": "2015-02-17T15:32:00+11:30",
    "temp": 22,
    "dewpoint": 20,
    "humidity": 88,
    "conditions": "Cloudy"
  },
  "YBHM": {
    "id": "YBHM",
    "city": "hamilton island",
    "region": "",
    "country": "au",
    "latitude": -20.35,
    "longitude": 148.95,
    "time": "2015-02-17T14:02:00+10:00",
    "temp": 24,
    "dewpoint": 19,
    "humidity": 74,
    "conditions": "Cloudy"
  },
  "TNCA": {
    "id": "TNCA",
    "city": "queen beatrix",
    "region": "",
    "country": "aw",
    "latitude": 12.5,
    "longitude": -70,
    "time": "2015-02-17T00:00:00-04:00",
    "temp": 27,
    "dewpoint": 23,
    "humidity": 79,
    "conditions": "Partly Cloudy"
  },
  "UBBY": {
    "id": "UBBY",
    "city": "zakataly",
    "region": "",
    "country": "az",
    "latitude": 41.566666666667,
    "longitude": 46.666666666667,
    "time": "2015-02-17T07:00:00+04:00",
    "temp": 1,
    "dewpoint": -4,
    "humidity": 70,
    "conditions": "Mostly Clear"
  },
  "UBBQ": {
    "id": "UBBQ",
    "city": "qabala",
    "region": "",
    "country": "az",
    "latitude": 40.816666666667,
    "longitude": 47.716666666667,
    "time": "2015-02-17T08:00:00+04:00",
    "temp": -2,
    "dewpoint": -2,
    "humidity": 100,
    "conditions": "Sunny"
  },
  "UBBN": {
    "id": "UBBN",
    "city": "nakhchivan",
    "region": "",
    "country": "az",
    "latitude": 39.183333333333,
    "longitude": 45.45,
    "time": "2015-02-17T08:00:00+04:00",
    "temp": 2,
    "dewpoint": -2,
    "humidity": 75,
    "conditions": "Mostly Cloudy"
  },
  "UBBG": {
    "id": "UBBG",
    "city": "gyandzha",
    "region": "",
    "country": "az",
    "latitude": 40.733333333333,
    "longitude": 46.316666666667,
    "time": "2015-02-17T08:00:00+04:00",
    "temp": -1,
    "dewpoint": -3,
    "humidity": 86,
    "conditions": "Partly Cloudy"
  },
  "UBBL": {
    "id": "UBBL",
    "city": "lenkoran",
    "region": "",
    "country": "az",
    "latitude": 38.75,
    "longitude": 48.816666666667,
    "time": "2015-02-17T08:00:00+04:00",
    "temp": 5,
    "dewpoint": 4,
    "humidity": 93,
    "conditions": "Partly Cloudy"
  },
  "UBBB": {
    "id": "UBBB",
    "city": "baku/bine arpt",
    "region": "",
    "country": "az",
    "latitude": 40.45,
    "longitude": 50.066666666667,
    "time": "2015-02-17T08:00:00+04:00",
    "temp": 6,
    "dewpoint": 5,
    "humidity": 93,
    "conditions": "Cloudy"
  },
  "LQMO": {
    "id": "LQMO",
    "city": "mostar airport",
    "region": "",
    "country": "ba",
    "latitude": 43.283333333333,
    "longitude": 17.833333333333,
    "time": "2015-02-17T05:00:00+01:00",
    "temp": 1,
    "dewpoint": -3,
    "humidity": 75,
    "conditions": "Mostly Clear"
  },
  "TBPB": {
    "id": "TBPB",
    "city": "grantley adams",
    "region": "",
    "country": "bb",
    "latitude": 13.066666666667,
    "longitude": -59.483333333333,
    "time": "2015-02-17T00:00:00-04:00",
    "temp": 25,
    "dewpoint": 22,
    "humidity": 83,
    "conditions": "Mostly Cloudy"
  },
  "VGEG": {
    "id": "VGEG",
    "city": "chittagong (cv/m",
    "region": "",
    "country": "bd",
    "latitude": 22.266666666667,
    "longitude": 91.816666666667,
    "time": "2015-02-17T08:50:00+06:00",
    "temp": 22,
    "dewpoint": 17,
    "humidity": 73,
    "conditions": "Mist and Fog"
  },
  "VGHS": {
    "id": "VGHS",
    "city": "dhaka",
    "region": "",
    "country": "bd",
    "latitude": 23.85,
    "longitude": 90.4,
    "time": "2015-02-17T09:50:00+06:00",
    "temp": 24,
    "dewpoint": 16,
    "humidity": 61,
    "conditions": "Hazy"
  },
  "EBCV": {
    "id": "EBCV",
    "city": "chievres ab",
    "region": "",
    "country": "be",
    "latitude": 50.566666666667,
    "longitude": 3.8166666666667,
    "time": "2015-02-17T04:25:00+01:00",
    "temp": 4,
    "dewpoint": 2,
    "humidity": 87,
    "conditions": "Mostly Clear"
  },
  "EBBE": {
    "id": "EBBE",
    "city": "beauvechain (baf",
    "region": "",
    "country": "be",
    "latitude": 50.75,
    "longitude": 4.7666666666667,
    "time": "2015-02-17T04:25:00+01:00",
    "temp": 3,
    "dewpoint": 2,
    "humidity": 93,
    "conditions": "Mostly Clear"
  },
  "EBLB": {
    "id": "EBLB",
    "city": "elsenborn (mil)",
    "region": "",
    "country": "be",
    "latitude": 50.466666666667,
    "longitude": 6.1666666666667,
    "time": "2015-02-17T04:25:00+01:00",
    "temp": -3,
    "dewpoint": -3,
    "humidity": 100,
    "conditions": "Mostly Clear"
  },
  "EBDT": {
    "id": "EBDT",
    "city": "schaffen",
    "region": "",
    "country": "be",
    "latitude": 51.016666666667,
    "longitude": 5.0666666666667,
    "time": "2015-02-17T04:25:00+01:00",
    "temp": 3,
    "dewpoint": 2,
    "humidity": 93,
    "conditions": "Mostly Clear"
  },
  "EBOS": {
    "id": "EBOS",
    "city": "oostende airport",
    "region": "",
    "country": "be",
    "latitude": 51.2,
    "longitude": 2.8666666666667,
    "time": "2015-02-17T04:50:00+01:00",
    "temp": 4,
    "dewpoint": 3,
    "humidity": 93,
    "conditions": "Mist and Fog"
  },
  "EBBR": {
    "id": "EBBR",
    "city": "brussels nationa",
    "region": "",
    "country": "be",
    "latitude": 50.9,
    "longitude": 4.5,
    "time": "2015-02-17T04:50:00+01:00",
    "temp": 3,
    "dewpoint": 2,
    "humidity": 93,
    "conditions": "Mist and Fog"
  },
  "EBAW": {
    "id": "EBAW",
    "city": "antwerp/deurne",
    "region": "",
    "country": "be",
    "latitude": 51.2,
    "longitude": 4.4666666666667,
    "time": "2015-02-17T04:50:00+01:00",
    "temp": 4,
    "dewpoint": 2,
    "humidity": 87,
    "conditions": "Mist and Fog"
  },
  "EBCI": {
    "id": "EBCI",
    "city": "charleroi/gossel",
    "region": "",
    "country": "be",
    "latitude": 50.466666666667,
    "longitude": 4.45,
    "time": "2015-02-17T04:50:00+01:00",
    "temp": 3,
    "dewpoint": 1,
    "humidity": 87,
    "conditions": "Mostly Cloudy"
  },
  "EBLG": {
    "id": "EBLG",
    "city": "bierset/liege (c",
    "region": "",
    "country": "be",
    "latitude": 50.633333333333,
    "longitude": 5.45,
    "time": "2015-02-17T04:50:00+01:00",
    "temp": 1,
    "dewpoint": 0,
    "humidity": 93,
    "conditions": "Mist and Fog"
  },
  "EBFN": {
    "id": "EBFN",
    "city": "koksijde (bel-af",
    "region": "",
    "country": "be",
    "latitude": 51.066666666667,
    "longitude": 2.6333333333333,
    "time": "2015-02-17T04:55:00+01:00",
    "temp": 4,
    "dewpoint": 4,
    "humidity": 100,
    "conditions": "Light Rain"
  },
  "EBBL": {
    "id": "EBBL",
    "city": "kleine-brogel(ba",
    "region": "",
    "country": "be",
    "latitude": 51.166666666667,
    "longitude": 5.4666666666667,
    "time": "2015-02-17T04:55:00+01:00",
    "temp": 2,
    "dewpoint": 2,
    "humidity": 100,
    "conditions": "Mist and Fog"
  },
  "EBFS": {
    "id": "EBFS",
    "city": "florennes (bel-a",
    "region": "",
    "country": "be",
    "latitude": 50.216666666667,
    "longitude": 4.65,
    "time": "2015-02-17T04:55:00+01:00",
    "temp": 2,
    "dewpoint": 1,
    "humidity": 93,
    "conditions": "Mist and Fog"
  },
  "KQBF": {
    "id": "KQBF",
    "city": "ouagadougou",
    "region": "",
    "country": "bf",
    "latitude": 12.35,
    "longitude": -1.5166666666667,
    "time": "2015-02-17T01:22:00+00:00",
    "temp": 26,
    "dewpoint": -3,
    "humidity": 15,
    "conditions": "Clear"
  },
  "DFOO": {
    "id": "DFOO",
    "city": "bobo-dioulasso",
    "region": "",
    "country": "bf",
    "latitude": 11.166666666667,
    "longitude": -4.3166666666667,
    "time": "2015-02-17T03:00:00+00:00",
    "temp": 25,
    "dewpoint": 2,
    "humidity": 22,
    "conditions": "Mostly Clear"
  },
  "DFFD": {
    "id": "DFFD",
    "city": "ouagadougou (mil",
    "region": "",
    "country": "bf",
    "latitude": 12.333333333333,
    "longitude": -1.5166666666667,
    "time": "2015-02-17T03:00:00+00:00",
    "temp": 25,
    "dewpoint": 0,
    "humidity": 19,
    "conditions": "Mostly Clear"
  },
  "LBPD": {
    "id": "LBPD",
    "city": "plovdiv",
    "region": "",
    "country": "bg",
    "latitude": 42.133333333333,
    "longitude": 24.8,
    "time": "2015-02-17T05:00:00+02:00",
    "temp": -2,
    "dewpoint": -4,
    "humidity": 86,
    "conditions": "Light Snow"
  },
  "LBSF": {
    "id": "LBSF",
    "city": "sofia (observato",
    "region": "",
    "country": "bg",
    "latitude": 42.65,
    "longitude": 23.383333333333,
    "time": "2015-02-17T06:00:00+02:00",
    "temp": -1,
    "dewpoint": -4,
    "humidity": 80,
    "conditions": "Light Snow"
  },
  "LBWN": {
    "id": "LBWN",
    "city": "varna",
    "region": "",
    "country": "bg",
    "latitude": 43.216666666667,
    "longitude": 27.816666666667,
    "time": "2015-02-17T06:00:00+02:00",
    "temp": -4,
    "dewpoint": -8,
    "humidity": 74,
    "conditions": "Mostly Clear"
  },
  "LBBG": {
    "id": "LBBG",
    "city": "burgas",
    "region": "",
    "country": "bg",
    "latitude": 42.566666666667,
    "longitude": 27.516666666667,
    "time": "2015-02-17T06:00:00+02:00",
    "temp": -3,
    "dewpoint": -7,
    "humidity": 74,
    "conditions": "Mostly Clear"
  },
  "OBBI": {
    "id": "OBBI",
    "city": "bahrain intl arp",
    "region": "",
    "country": "bh",
    "latitude": 26.266666666667,
    "longitude": 50.633333333333,
    "time": "2015-02-17T06:00:00+03:00",
    "temp": 19,
    "dewpoint": 17,
    "humidity": 88,
    "conditions": "Mostly Clear"
  },
  "DBBB": {
    "id": "DBBB",
    "city": "cotonou/cadjehou",
    "region": "",
    "country": "bj",
    "latitude": 6.3333333333333,
    "longitude": 2.3666666666667,
    "time": "2015-02-17T04:00:00+01:00",
    "temp": 28,
    "dewpoint": 25,
    "humidity": 84,
    "conditions": "Partly Cloudy"
  },
  "TXKF": {
    "id": "TXKF",
    "city": "bermuda nas",
    "region": "",
    "country": "bm",
    "latitude": 32.366666666667,
    "longitude": -64.683333333333,
    "time": "2015-02-16T23:55:00-04:00",
    "temp": 15,
    "dewpoint": 8,
    "humidity": 63,
    "conditions": "Cloudy"
  },
  "SLRI": {
    "id": "SLRI",
    "city": "riberalta",
    "region": "",
    "country": "bo",
    "latitude": -11.016666666667,
    "longitude": -66.083333333333,
    "time": "2015-02-16T19:00:00-04:00",
    "temp": 24,
    "dewpoint": 24,
    "humidity": 100,
    "conditions": "Light Rain"
  },
  "SLSU": {
    "id": "SLSU",
    "city": "sucre/juana azur",
    "region": "",
    "country": "bo",
    "latitude": -19.016666666667,
    "longitude": -65.266666666667,
    "time": "2015-02-16T19:00:00-04:00",
    "temp": 13,
    "dewpoint": 12,
    "humidity": 94,
    "conditions": "Mostly Cloudy"
  },
  "SLOR": {
    "id": "SLOR",
    "city": "oruro/juan mendo",
    "region": "",
    "country": "bo",
    "latitude": -17.966666666667,
    "longitude": -67.083333333333,
    "time": "2015-02-16T19:00:00-04:00",
    "temp": 13,
    "dewpoint": 5,
    "humidity": 59,
    "conditions": "Mostly Cloudy"
  },
  "SLPS": {
    "id": "SLPS",
    "city": "puerto suarez/sa",
    "region": "",
    "country": "bo",
    "latitude": -18.983333333333,
    "longitude": -57.816666666667,
    "time": "2015-02-16T19:00:00-04:00",
    "temp": 24,
    "dewpoint": 23,
    "humidity": 94,
    "conditions": "Cloudy"
  },
  "SLTR": {
    "id": "SLTR",
    "city": "trinidad/jorge h",
    "region": "",
    "country": "bo",
    "latitude": -14.833333333333,
    "longitude": -64.916666666667,
    "time": "2015-02-16T19:00:00-04:00",
    "temp": 31,
    "dewpoint": 25,
    "humidity": 70,
    "conditions": "Mostly Cloudy"
  },
  "SLSA": {
    "id": "SLSA",
    "city": "santa ana de yac",
    "region": "",
    "country": "bo",
    "latitude": -13.766666666667,
    "longitude": -65.433333333333,
    "time": "2015-02-16T19:00:00-04:00",
    "temp": 29,
    "dewpoint": 25,
    "humidity": 79,
    "conditions": "Mostly Cloudy"
  },
  "SLMG": {
    "id": "SLMG",
    "city": "magdalena",
    "region": "",
    "country": "bo",
    "latitude": -13.266666666667,
    "longitude": -64.066666666667,
    "time": "2015-02-16T19:00:00-04:00",
    "temp": 26,
    "dewpoint": 25,
    "humidity": 94,
    "conditions": "Mostly Cloudy"
  },
  "SLCA": {
    "id": "SLCA",
    "city": "camiri",
    "region": "",
    "country": "bo",
    "latitude": -20,
    "longitude": -63.533333333333,
    "time": "2015-02-16T19:00:00-04:00",
    "temp": 23,
    "dewpoint": 20,
    "humidity": 83,
    "conditions": "Mostly Clear"
  },
  "SLYA": {
    "id": "SLYA",
    "city": "yacuiba",
    "region": "",
    "country": "bo",
    "latitude": -21.966666666667,
    "longitude": -63.65,
    "time": "2015-02-16T19:00:00-04:00",
    "temp": 25,
    "dewpoint": 24,
    "humidity": 94,
    "conditions": "Mostly Clear"
  },
  "SLRB": {
    "id": "SLRB",
    "city": "robore (civ/mil)",
    "region": "",
    "country": "bo",
    "latitude": -18.316666666667,
    "longitude": -59.75,
    "time": "2015-02-16T19:00:00-04:00",
    "temp": 27,
    "dewpoint": 24,
    "humidity": 84,
    "conditions": "Partly Cloudy"
  },
  "SLSI": {
    "id": "SLSI",
    "city": "san ignacio vela",
    "region": "",
    "country": "bo",
    "latitude": -16.366666666667,
    "longitude": -60.95,
    "time": "2015-02-16T19:00:00-04:00",
    "temp": 25,
    "dewpoint": 24,
    "humidity": 94,
    "conditions": "Cloudy"
  },
  "SLTJ": {
    "id": "SLTJ",
    "city": "tarija/capt orie",
    "region": "",
    "country": "bo",
    "latitude": -21.55,
    "longitude": -64.716666666667,
    "time": "2015-02-16T22:00:00-04:00",
    "temp": 18,
    "dewpoint": 15,
    "humidity": 83,
    "conditions": "Mostly Clear"
  },
  "SLLP": {
    "id": "SLLP",
    "city": "la paz/jfk intl",
    "region": "",
    "country": "bo",
    "latitude": -16.516666666667,
    "longitude": -68.166666666667,
    "time": "2015-02-16T23:00:00-04:00",
    "temp": 6,
    "dewpoint": 3,
    "humidity": 81,
    "conditions": "Mostly Cloudy"
  },
  "SLCB": {
    "id": "SLCB",
    "city": "cochabamba/jorge",
    "region": "",
    "country": "bo",
    "latitude": -17.416666666667,
    "longitude": -66.183333333333,
    "time": "2015-02-16T23:00:00-04:00",
    "temp": 15,
    "dewpoint": 11,
    "humidity": 77,
    "conditions": "Cloudy"
  },
  "SLVR": {
    "id": "SLVR",
    "city": "viru viru intl a",
    "region": "",
    "country": "bo",
    "latitude": -17.633333333333,
    "longitude": -63.116666666667,
    "time": "2015-02-16T23:00:00-04:00",
    "temp": 21,
    "dewpoint": 21,
    "humidity": 100,
    "conditions": "Light Rain"
  },
  "SBUA": {
    "id": "SBUA",
    "city": "sao gabriel cach",
    "region": "",
    "country": "br",
    "latitude": -0.15,
    "longitude": -66.983333333333,
    "time": "2015-02-16T19:00:00-04:00",
    "temp": 27,
    "dewpoint": 25,
    "humidity": 89,
    "conditions": "Scattered Storms"
  },
  "SBCZ": {
    "id": "SBCZ",
    "city": "cruzeiro do sul",
    "region": "",
    "country": "br",
    "latitude": -7.6166666666667,
    "longitude": -72.766666666667,
    "time": "2015-02-16T19:00:00-04:00",
    "temp": 27,
    "dewpoint": 27,
    "humidity": 100,
    "conditions": "Mostly Cloudy"
  },
  "SBTK": {
    "id": "SBTK",
    "city": "tarauaca",
    "region": "",
    "country": "br",
    "latitude": -8.1666666666667,
    "longitude": -70.766666666667,
    "time": "2015-02-16T19:00:00-04:00",
    "temp": 26,
    "dewpoint": 24,
    "humidity": 89,
    "conditions": "Partly Cloudy"
  },
  "SBTT": {
    "id": "SBTT",
    "city": "tabatinga intl a",
    "region": "",
    "country": "br",
    "latitude": -4.25,
    "longitude": -69.933333333333,
    "time": "2015-02-16T19:00:00-04:00",
    "temp": 24,
    "dewpoint": 24,
    "humidity": 100,
    "conditions": "Light Rain"
  },
  "SBCR": {
    "id": "SBCR",
    "city": "corumba intl arp",
    "region": "",
    "country": "br",
    "latitude": -19,
    "longitude": -57.666666666667,
    "time": "2015-02-16T20:00:00-03:00",
    "temp": 25,
    "dewpoint": 23,
    "humidity": 89,
    "conditions": "Mostly Cloudy"
  },
  "SBUY": {
    "id": "SBUY",
    "city": "porto urucu",
    "region": "",
    "country": "br",
    "latitude": -4.8833333333333,
    "longitude": -65.35,
    "time": "2015-02-16T19:00:00-04:00",
    "temp": 27,
    "dewpoint": 26,
    "humidity": 94,
    "conditions": "Partly Cloudy"
  },
  "SBAU": {
    "id": "SBAU",
    "city": "aracatuba",
    "region": "",
    "country": "br",
    "latitude": -21.133333333333,
    "longitude": -50.433333333333,
    "time": "2015-02-16T21:00:00-02:00",
    "temp": 27,
    "dewpoint": 23,
    "humidity": 79,
    "conditions": "Mostly Clear"
  },
  "SBML": {
    "id": "SBML",
    "city": "marilia",
    "region": "",
    "country": "br",
    "latitude": -22.183333333333,
    "longitude": -49.916666666667,
    "time": "2015-02-16T21:00:00-02:00",
    "temp": 25,
    "dewpoint": 20,
    "humidity": 74,
    "conditions": "Scattered Storms"
  },
  "SBTF": {
    "id": "SBTF",
    "city": "tefe",
    "region": "",
    "country": "br",
    "latitude": -3.3666666666667,
    "longitude": -64.716666666667,
    "time": "2015-02-16T19:00:00-04:00",
    "temp": 29,
    "dewpoint": 25,
    "humidity": 79,
    "conditions": "Mostly Clear"
  },
  "SBGM": {
    "id": "SBGM",
    "city": "guajara mirim",
    "region": "",
    "country": "br",
    "latitude": -10.783333333333,
    "longitude": -65.283333333333,
    "time": "2015-02-16T19:00:00-04:00",
    "temp": 25,
    "dewpoint": 24,
    "humidity": 94,
    "conditions": "Partly Cloudy"
  },
  "SBBI": {
    "id": "SBBI",
    "city": "curitiba/bacache",
    "region": "",
    "country": "br",
    "latitude": -25.4,
    "longitude": -49.233333333333,
    "time": "2015-02-16T22:00:00-02:00",
    "temp": 17,
    "dewpoint": 17,
    "humidity": 100,
    "conditions": "Mostly Cloudy"
  },
  "SBJR": {
    "id": "SBJR",
    "city": "rio/jacarepagua",
    "region": "",
    "country": "br",
    "latitude": -22.966666666667,
    "longitude": -43.366666666667,
    "time": "2015-02-16T22:00:00-02:00",
    "temp": 27,
    "dewpoint": 24,
    "humidity": 84,
    "conditions": "Cloudy"
  },
  "SBLS": {
    "id": "SBLS",
    "city": "lagoa santa(cv/m",
    "region": "",
    "country": "br",
    "latitude": -19.666666666667,
    "longitude": -43.883333333333,
    "time": "2015-02-16T22:00:00-02:00",
    "temp": 21,
    "dewpoint": 17,
    "humidity": 78,
    "conditions": "Partly Cloudy"
  },
  "SBMT": {
    "id": "SBMT",
    "city": "marte (civ/mil)",
    "region": "",
    "country": "br",
    "latitude": -23.516666666667,
    "longitude": -46.616666666667,
    "time": "2015-02-16T23:00:00-02:00",
    "temp": 20,
    "dewpoint": 19,
    "humidity": 94,
    "conditions": "Light Rain"
  },
  "SBRJ": {
    "id": "SBRJ",
    "city": "santos dumont/ri",
    "region": "",
    "country": "br",
    "latitude": -22.883333333333,
    "longitude": -43.166666666667,
    "time": "2015-02-16T23:00:00-02:00",
    "temp": 27,
    "dewpoint": 23,
    "humidity": 79,
    "conditions": "Cloudy"
  },
  "SBJV": {
    "id": "SBJV",
    "city": "joinville",
    "region": "",
    "country": "br",
    "latitude": -26.216666666667,
    "longitude": -48.8,
    "time": "2015-02-16T23:00:00-02:00",
    "temp": 22,
    "dewpoint": 21,
    "humidity": 94,
    "conditions": "Light Rain"
  },
  "SBCA": {
    "id": "SBCA",
    "city": "cascavel",
    "region": "",
    "country": "br",
    "latitude": -25,
    "longitude": -53.5,
    "time": "2015-02-16T23:00:00-02:00",
    "temp": 22,
    "dewpoint": 19,
    "humidity": 83,
    "conditions": "Mostly Clear"
  },
  "SBCM": {
    "id": "SBCM",
    "city": "forquilhinha",
    "region": "",
    "country": "br",
    "latitude": -28.716666666667,
    "longitude": -49.416666666667,
    "time": "2015-02-16T23:00:00-02:00",
    "temp": 22,
    "dewpoint": 20,
    "humidity": 88,
    "conditions": "Partly Cloudy"
  },
  "SBYS": {
    "id": "SBYS",
    "city": "pirassununga/cam",
    "region": "",
    "country": "br",
    "latitude": -21.966666666667,
    "longitude": -47.316666666667,
    "time": "2015-02-16T23:00:00-02:00",
    "temp": 23,
    "dewpoint": 22,
    "humidity": 94,
    "conditions": "Cloudy"
  },
  "SBIH": {
    "id": "SBIH",
    "city": "itaituba",
    "region": "",
    "country": "br",
    "latitude": -4.25,
    "longitude": -56,
    "time": "2015-02-16T21:00:00-04:00",
    "temp": 27,
    "dewpoint": 25,
    "humidity": 89,
    "conditions": "Partly Cloudy"
  },
  "SBCP": {
    "id": "SBCP",
    "city": "campos/bartolome",
    "region": "",
    "country": "br",
    "latitude": -21.7,
    "longitude": -41.3,
    "time": "2015-02-16T23:00:00-02:00",
    "temp": 27,
    "dewpoint": 24,
    "humidity": 84,
    "conditions": "Mostly Clear"
  },
  "SBMD": {
    "id": "SBMD",
    "city": "monte dourado",
    "region": "",
    "country": "br",
    "latitude": -0.86666666666667,
    "longitude": -52.6,
    "time": "2015-02-16T22:00:00-03:00",
    "temp": null,
    "dewpoint": null,
    "humidity": null,
    "conditions": "Mostly Clear"
  },
  "SBQV": {
    "id": "SBQV",
    "city": "vitoria da conqu",
    "region": "",
    "country": "br",
    "latitude": -14.866666666667,
    "longitude": -40.866666666667,
    "time": "2015-02-16T23:15:00-02:00",
    "temp": 21,
    "dewpoint": 20,
    "humidity": 94,
    "conditions": "Mostly Clear"
  },
  "SBCO": {
    "id": "SBCO",
    "city": "porto alegre/can",
    "region": "",
    "country": "br",
    "latitude": -29.95,
    "longitude": -51.15,
    "time": "2015-02-17T00:00:00-02:00",
    "temp": 20,
    "dewpoint": 19,
    "humidity": 94,
    "conditions": "Mostly Clear"
  },
  "SBNF": {
    "id": "SBNF",
    "city": "navegantes",
    "region": "",
    "country": "br",
    "latitude": -26.883333333333,
    "longitude": -48.65,
    "time": "2015-02-17T00:00:00-02:00",
    "temp": 26,
    "dewpoint": 22,
    "humidity": 79,
    "conditions": "Partly Cloudy"
  },
  "SBHT": {
    "id": "SBHT",
    "city": "altamira",
    "region": "",
    "country": "br",
    "latitude": -3.25,
    "longitude": -52.266666666667,
    "time": "2015-02-16T22:00:00-04:00",
    "temp": null,
    "dewpoint": null,
    "humidity": null,
    "conditions": "Mostly Clear"
  },
  "SBSM": {
    "id": "SBSM",
    "city": "santa maria(cv/m",
    "region": "",
    "country": "br",
    "latitude": -29.716666666667,
    "longitude": -53.7,
    "time": "2015-02-17T00:00:00-02:00",
    "temp": 20,
    "dewpoint": 18,
    "humidity": 88,
    "conditions": "Mostly Clear"
  },
  "SBMG": {
    "id": "SBMG",
    "city": "maringa",
    "region": "",
    "country": "br",
    "latitude": -23.483333333333,
    "longitude": -52.016666666667,
    "time": "2015-02-17T00:00:00-02:00",
    "temp": 23,
    "dewpoint": 21,
    "humidity": 89,
    "conditions": "Partly Cloudy"
  },
  "SBIZ": {
    "id": "SBIZ",
    "city": "imperatrize",
    "region": "",
    "country": "br",
    "latitude": -5.5166666666667,
    "longitude": -47.45,
    "time": "2015-02-16T23:00:00-03:00",
    "temp": 25,
    "dewpoint": 24,
    "humidity": 94,
    "conditions": "Mostly Cloudy"
  },
  "SBAQ": {
    "id": "SBAQ",
    "city": "araraquara",
    "region": "",
    "country": "br",
    "latitude": -21.8,
    "longitude": -48.133333333333,
    "time": "2015-02-17T00:00:00-02:00",
    "temp": 24,
    "dewpoint": 22,
    "humidity": 89,
    "conditions": "Mostly Clear"
  },
  "SBTA": {
    "id": "SBTA",
    "city": "taubate (base)",
    "region": "",
    "country": "br",
    "latitude": -23.033333333333,
    "longitude": -45.5,
    "time": "2015-02-17T00:00:00-02:00",
    "temp": null,
    "dewpoint": null,
    "humidity": null,
    "conditions": "Mostly Cloudy"
  },
  "SBSJ": {
    "id": "SBSJ",
    "city": "sao jose dos cam",
    "region": "",
    "country": "br",
    "latitude": -23.216666666667,
    "longitude": -45.866666666667,
    "time": "2015-02-17T01:00:00-02:00",
    "temp": 23,
    "dewpoint": 21,
    "humidity": 89,
    "conditions": "Mostly Cloudy"
  },
  "SBAN": {
    "id": "SBAN",
    "city": "anapolis (braz-a",
    "region": "",
    "country": "br",
    "latitude": -16.216666666667,
    "longitude": -48.966666666667,
    "time": "2015-02-17T01:00:00-02:00",
    "temp": 19,
    "dewpoint": 17,
    "humidity": 88,
    "conditions": "Mostly Cloudy"
  },
  "SBSC": {
    "id": "SBSC",
    "city": "santa cruz (mil)",
    "region": "",
    "country": "br",
    "latitude": -22.916666666667,
    "longitude": -43.716666666667,
    "time": "2015-02-17T01:00:00-02:00",
    "temp": 25,
    "dewpoint": 22,
    "humidity": 83,
    "conditions": "Mostly Cloudy"
  },
  "SBGL": {
    "id": "SBGL",
    "city": "galeao/rio(civ/m",
    "region": "",
    "country": "br",
    "latitude": -22.816666666667,
    "longitude": -43.25,
    "time": "2015-02-17T01:00:00-02:00",
    "temp": 27,
    "dewpoint": 22,
    "humidity": 74,
    "conditions": "Mostly Cloudy"
  },
  "SBAF": {
    "id": "SBAF",
    "city": "afonsos arpt (mi",
    "region": "",
    "country": "br",
    "latitude": -22.866666666667,
    "longitude": -43.366666666667,
    "time": "2015-02-17T01:00:00-02:00",
    "temp": 25,
    "dewpoint": 22,
    "humidity": 83,
    "conditions": "Mostly Cloudy"
  },
  "SBUR": {
    "id": "SBUR",
    "city": "uberaba",
    "region": "",
    "country": "br",
    "latitude": -19.766666666667,
    "longitude": -47.966666666667,
    "time": "2015-02-17T01:00:00-02:00",
    "temp": 21,
    "dewpoint": 20,
    "humidity": 94,
    "conditions": "Light Rain"
  },
  "SBPJ": {
    "id": "SBPJ",
    "city": "palmas",
    "region": "",
    "country": "br",
    "latitude": -10.283333333333,
    "longitude": -48.366666666667,
    "time": "2015-02-17T00:00:00-03:00",
    "temp": 25,
    "dewpoint": 22,
    "humidity": 83,
    "conditions": "Mostly Cloudy"
  },
  "SBIL": {
    "id": "SBIL",
    "city": "ilheus airport",
    "region": "",
    "country": "br",
    "latitude": -14.8,
    "longitude": -39.016666666667,
    "time": "2015-02-17T01:00:00-02:00",
    "temp": 26,
    "dewpoint": 24,
    "humidity": 89,
    "conditions": "Light Rain"
  },
  "SBBE": {
    "id": "SBBE",
    "city": "belem/val de cae",
    "region": "",
    "country": "br",
    "latitude": -1.3666666666667,
    "longitude": -48.466666666667,
    "time": "2015-02-17T00:00:00-03:00",
    "temp": 25,
    "dewpoint": 23,
    "humidity": 89,
    "conditions": "Mostly Clear"
  },
  "SBCH": {
    "id": "SBCH",
    "city": "chapeco",
    "region": "",
    "country": "br",
    "latitude": -27.133333333333,
    "longitude": -52.666666666667,
    "time": "2015-02-17T01:00:00-02:00",
    "temp": 22,
    "dewpoint": 17,
    "humidity": 73,
    "conditions": "Mostly Clear"
  },
  "SBME": {
    "id": "SBME",
    "city": "macae",
    "region": "",
    "country": "br",
    "latitude": -22.35,
    "longitude": -41.766666666667,
    "time": "2015-02-17T01:00:00-02:00",
    "temp": 26,
    "dewpoint": 24,
    "humidity": 89,
    "conditions": "Mostly Clear"
  },
  "SBVH": {
    "id": "SBVH",
    "city": "vilhena",
    "region": "",
    "country": "br",
    "latitude": -12.716666666667,
    "longitude": -60.116666666667,
    "time": "2015-02-17T00:00:00-03:00",
    "temp": 22,
    "dewpoint": 22,
    "humidity": 100,
    "conditions": "Mostly Cloudy"
  },
  "SBDN": {
    "id": "SBDN",
    "city": "presidente prude",
    "region": "",
    "country": "br",
    "latitude": -22.183333333333,
    "longitude": -51.433333333333,
    "time": "2015-02-17T01:00:00-02:00",
    "temp": 22,
    "dewpoint": 21,
    "humidity": 94,
    "conditions": "Mostly Cloudy"
  },
  "SBJU": {
    "id": "SBJU",
    "city": "juazeiro d norte",
    "region": "",
    "country": "br",
    "latitude": -7.2166666666667,
    "longitude": -39.266666666667,
    "time": "2015-02-17T00:00:00-03:00",
    "temp": 28,
    "dewpoint": 21,
    "humidity": 66,
    "conditions": "Partly Cloudy"
  },
  "SBSR": {
    "id": "SBSR",
    "city": "sao jose preto",
    "region": "",
    "country": "br",
    "latitude": -20.8,
    "longitude": -49.4,
    "time": "2015-02-17T01:00:00-02:00",
    "temp": 24,
    "dewpoint": 20,
    "humidity": 78,
    "conditions": "Mostly Clear"
  },
  "SBBU": {
    "id": "SBBU",
    "city": "bauru",
    "region": "",
    "country": "br",
    "latitude": -22.316666666667,
    "longitude": -49.066666666667,
    "time": "2015-02-17T01:00:00-02:00",
    "temp": 22,
    "dewpoint": 22,
    "humidity": 100,
    "conditions": "Cloudy"
  },
  "SBUL": {
    "id": "SBUL",
    "city": "uberlandia",
    "region": "",
    "country": "br",
    "latitude": -18.866666666667,
    "longitude": -48.216666666667,
    "time": "2015-02-17T01:00:00-02:00",
    "temp": 20,
    "dewpoint": 19,
    "humidity": 94,
    "conditions": "Light Rain"
  },
  "SBCF": {
    "id": "SBCF",
    "city": "belo horiz/tancr",
    "region": "",
    "country": "br",
    "latitude": -19.633333333333,
    "longitude": -43.966666666667,
    "time": "2015-02-17T01:00:00-02:00",
    "temp": 21,
    "dewpoint": 17,
    "humidity": 78,
    "conditions": "Partly Cloudy"
  },
  "SBMK": {
    "id": "SBMK",
    "city": "montes claros",
    "region": "",
    "country": "br",
    "latitude": -16.7,
    "longitude": -43.816666666667,
    "time": "2015-02-17T01:00:00-02:00",
    "temp": 23,
    "dewpoint": 17,
    "humidity": 69,
    "conditions": "Mostly Clear"
  },
  "SBBH": {
    "id": "SBBH",
    "city": "belo horiz/pampu",
    "region": "",
    "country": "br",
    "latitude": -19.85,
    "longitude": -43.95,
    "time": "2015-02-17T01:00:00-02:00",
    "temp": 21,
    "dewpoint": 17,
    "humidity": 78,
    "conditions": "Mostly Clear"
  },
  "SBPB": {
    "id": "SBPB",
    "city": "parnaiba airport",
    "region": "",
    "country": "br",
    "latitude": -2.9166666666667,
    "longitude": -41.75,
    "time": "2015-02-17T00:00:00-03:00",
    "temp": 25,
    "dewpoint": 24,
    "humidity": 94,
    "conditions": "Mostly Cloudy"
  },
  "SBKG": {
    "id": "SBKG",
    "city": "campina grande",
    "region": "",
    "country": "br",
    "latitude": -7.2666666666667,
    "longitude": -35.866666666667,
    "time": "2015-02-17T00:15:00-03:00",
    "temp": 23,
    "dewpoint": 21,
    "humidity": 89,
    "conditions": "Partly Cloudy"
  },
  "SBRB": {
    "id": "SBRB",
    "city": "rio branco/medic",
    "region": "",
    "country": "br",
    "latitude": -10,
    "longitude": -67.783333333333,
    "time": "2015-02-17T00:00:00-04:00",
    "temp": 23,
    "dewpoint": 22,
    "humidity": 94,
    "conditions": "Light Rain"
  },
  "SBBV": {
    "id": "SBBV",
    "city": "boa vista (civ/m",
    "region": "",
    "country": "br",
    "latitude": 2.85,
    "longitude": -60.7,
    "time": "2015-02-17T00:00:00-04:00",
    "temp": 25,
    "dewpoint": 19,
    "humidity": 69,
    "conditions": "Mostly Clear"
  },
  "SBMN": {
    "id": "SBMN",
    "city": "manaus/ponta pel",
    "region": "",
    "country": "br",
    "latitude": -3.1333333333333,
    "longitude": -59.966666666667,
    "time": "2015-02-17T00:00:00-04:00",
    "temp": 27,
    "dewpoint": 23,
    "humidity": 79,
    "conditions": "Mostly Clear"
  },
  "SBEG": {
    "id": "SBEG",
    "city": "eduardo gomes in",
    "region": "",
    "country": "br",
    "latitude": -3.0166666666667,
    "longitude": -60.033333333333,
    "time": "2015-02-17T00:00:00-04:00",
    "temp": 26,
    "dewpoint": 23,
    "humidity": 84,
    "conditions": "Mostly Clear"
  },
  "SBPV": {
    "id": "SBPV",
    "city": "porto velho(cv/m",
    "region": "",
    "country": "br",
    "latitude": -8.7166666666667,
    "longitude": -63.9,
    "time": "2015-02-17T00:00:00-04:00",
    "temp": 24,
    "dewpoint": 23,
    "humidity": 94,
    "conditions": "Mostly Cloudy"
  },
  "SBVT": {
    "id": "SBVT",
    "city": "vitoria/goiabeir",
    "region": "",
    "country": "br",
    "latitude": -20.266666666667,
    "longitude": -40.266666666667,
    "time": "2015-02-17T02:00:00-02:00",
    "temp": 25,
    "dewpoint": 21,
    "humidity": 79,
    "conditions": "Partly Cloudy"
  },
  "SBSN": {
    "id": "SBSN",
    "city": "santarem intl ar",
    "region": "",
    "country": "br",
    "latitude": -2.4166666666667,
    "longitude": -54.783333333333,
    "time": "2015-02-17T00:00:00-04:00",
    "temp": 27,
    "dewpoint": 24,
    "humidity": 84,
    "conditions": "Mostly Cloudy"
  },
  "SBPK": {
    "id": "SBPK",
    "city": "pelotas",
    "region": "",
    "country": "br",
    "latitude": -31.716666666667,
    "longitude": -52.333333333333,
    "time": "2015-02-17T02:00:00-02:00",
    "temp": 21,
    "dewpoint": 19,
    "humidity": 88,
    "conditions": "Mostly Clear"
  },
  "SBPA": {
    "id": "SBPA",
    "city": "porto alegre/sal",
    "region": "",
    "country": "br",
    "latitude": -30,
    "longitude": -51.166666666667,
    "time": "2015-02-17T02:00:00-02:00",
    "temp": 22,
    "dewpoint": 20,
    "humidity": 88,
    "conditions": "Mostly Clear"
  },
  "SBRF": {
    "id": "SBRF",
    "city": "recife/guararape",
    "region": "",
    "country": "br",
    "latitude": -8.1333333333333,
    "longitude": -34.916666666667,
    "time": "2015-02-17T01:00:00-03:00",
    "temp": 27,
    "dewpoint": 23,
    "humidity": 79,
    "conditions": "Mostly Clear"
  },
  "SBJP": {
    "id": "SBJP",
    "city": "joao pessoa/pres",
    "region": "",
    "country": "br",
    "latitude": -7.15,
    "longitude": -34.95,
    "time": "2015-02-17T01:00:00-03:00",
    "temp": 26,
    "dewpoint": 22,
    "humidity": 79,
    "conditions": "Partly Cloudy"
  },
  "SBFZ": {
    "id": "SBFZ",
    "city": "fortaleza/pinto",
    "region": "",
    "country": "br",
    "latitude": -3.7666666666667,
    "longitude": -38.516666666667,
    "time": "2015-02-17T01:00:00-03:00",
    "temp": 26,
    "dewpoint": 21,
    "humidity": 74,
    "conditions": "Partly Cloudy"
  },
  "SBGO": {
    "id": "SBGO",
    "city": "goiania/santa ge",
    "region": "",
    "country": "br",
    "latitude": -16.616666666667,
    "longitude": -49.216666666667,
    "time": "2015-02-17T02:00:00-02:00",
    "temp": 21,
    "dewpoint": 18,
    "humidity": 83,
    "conditions": "Partly Cloudy"
  },
  "SBSP": {
    "id": "SBSP",
    "city": "sao paulo/congon",
    "region": "",
    "country": "br",
    "latitude": -23.616666666667,
    "longitude": -46.633333333333,
    "time": "2015-02-17T02:00:00-02:00",
    "temp": 20,
    "dewpoint": 18,
    "humidity": 88,
    "conditions": "Mostly Cloudy"
  },
  "SBCY": {
    "id": "SBCY",
    "city": "cuiaba/marechal",
    "region": "",
    "country": "br",
    "latitude": -15.65,
    "longitude": -56.116666666667,
    "time": "2015-02-17T01:00:00-03:00",
    "temp": 26,
    "dewpoint": 23,
    "humidity": 84,
    "conditions": "Mostly Clear"
  },
  "SBFL": {
    "id": "SBFL",
    "city": "florianopolis ar",
    "region": "",
    "country": "br",
    "latitude": -27.666666666667,
    "longitude": -48.533333333333,
    "time": "2015-02-17T02:00:00-02:00",
    "temp": 23,
    "dewpoint": 21,
    "humidity": 89,
    "conditions": "Partly Cloudy"
  },
  "SBAR": {
    "id": "SBAR",
    "city": "aracaju/santa ma",
    "region": "",
    "country": "br",
    "latitude": -10.966666666667,
    "longitude": -37.066666666667,
    "time": "2015-02-17T02:00:00-02:00",
    "temp": 27,
    "dewpoint": 23,
    "humidity": 79,
    "conditions": "Partly Cloudy"
  },
  "SBPS": {
    "id": "SBPS",
    "city": "porto seguro",
    "region": "",
    "country": "br",
    "latitude": -16.433333333333,
    "longitude": -39.066666666667,
    "time": "2015-02-17T02:00:00-02:00",
    "temp": 25,
    "dewpoint": 23,
    "humidity": 89,
    "conditions": "Mostly Clear"
  },
  "SBFI": {
    "id": "SBFI",
    "city": "foz do iguacu ar",
    "region": "",
    "country": "br",
    "latitude": -25.6,
    "longitude": -54.483333333333,
    "time": "2015-02-17T02:00:00-02:00",
    "temp": 25,
    "dewpoint": 22,
    "humidity": 83,
    "conditions": "Mostly Clear"
  },
  "SBSL": {
    "id": "SBSL",
    "city": "sao luis/marecha",
    "region": "",
    "country": "br",
    "latitude": -2.6,
    "longitude": -44.216666666667,
    "time": "2015-02-17T01:00:00-03:00",
    "temp": 28,
    "dewpoint": 22,
    "humidity": 70,
    "conditions": "Mostly Clear"
  },
  "SBNT": {
    "id": "SBNT",
    "city": "natal/augusto se",
    "region": "",
    "country": "br",
    "latitude": -5.9166666666667,
    "longitude": -35.25,
    "time": "2015-02-17T01:00:00-03:00",
    "temp": 27,
    "dewpoint": 21,
    "humidity": 70,
    "conditions": "Partly Cloudy"
  },
  "SBCT": {
    "id": "SBCT",
    "city": "curitiba/afonso",
    "region": "",
    "country": "br",
    "latitude": -25.516666666667,
    "longitude": -49.166666666667,
    "time": "2015-02-17T02:00:00-02:00",
    "temp": 17,
    "dewpoint": 15,
    "humidity": 88,
    "conditions": "Mostly Cloudy"
  },
  "SBBR": {
    "id": "SBBR",
    "city": "brasilia (civ/mi",
    "region": "",
    "country": "br",
    "latitude": -15.866666666667,
    "longitude": -47.916666666667,
    "time": "2015-02-17T02:00:00-02:00",
    "temp": 20,
    "dewpoint": 17,
    "humidity": 83,
    "conditions": "Mostly Cloudy"
  },
  "SBMO": {
    "id": "SBMO",
    "city": "maceio/campo pal",
    "region": "",
    "country": "br",
    "latitude": -9.5166666666667,
    "longitude": -35.766666666667,
    "time": "2015-02-17T01:00:00-03:00",
    "temp": 24,
    "dewpoint": 23,
    "humidity": 94,
    "conditions": "Partly Cloudy"
  },
  "SBMA": {
    "id": "SBMA",
    "city": "maraba",
    "region": "",
    "country": "br",
    "latitude": -5.3666666666667,
    "longitude": -49.133333333333,
    "time": "2015-02-17T01:00:00-03:00",
    "temp": 24,
    "dewpoint": 24,
    "humidity": 100,
    "conditions": "Mostly Clear"
  },
  "SBGR": {
    "id": "SBGR",
    "city": "guarulhos (civ/m",
    "region": "",
    "country": "br",
    "latitude": -23.416666666667,
    "longitude": -46.466666666667,
    "time": "2015-02-17T02:00:00-02:00",
    "temp": 20,
    "dewpoint": 20,
    "humidity": 100,
    "conditions": "Light Rain"
  },
  "SBLO": {
    "id": "SBLO",
    "city": "londrina airport",
    "region": "",
    "country": "br",
    "latitude": -23.316666666667,
    "longitude": -51.116666666667,
    "time": "2015-02-17T02:00:00-02:00",
    "temp": 21,
    "dewpoint": 21,
    "humidity": 100,
    "conditions": "Mostly Cloudy"
  },
  "SBTE": {
    "id": "SBTE",
    "city": "teresina airport",
    "region": "",
    "country": "br",
    "latitude": -5.0333333333333,
    "longitude": -42.816666666667,
    "time": "2015-02-17T01:00:00-03:00",
    "temp": 24,
    "dewpoint": 24,
    "humidity": 100,
    "conditions": "Mostly Cloudy"
  },
  "SBCG": {
    "id": "SBCG",
    "city": "campo grande int",
    "region": "",
    "country": "br",
    "latitude": -20.466666666667,
    "longitude": -54.666666666667,
    "time": "2015-02-17T01:00:00-03:00",
    "temp": 21,
    "dewpoint": 20,
    "humidity": 94,
    "conditions": "Partly Cloudy"
  },
  "SBRP": {
    "id": "SBRP",
    "city": "leite lopes/ribe",
    "region": "",
    "country": "br",
    "latitude": -21.116666666667,
    "longitude": -47.766666666667,
    "time": "2015-02-17T02:00:00-02:00",
    "temp": 23,
    "dewpoint": 18,
    "humidity": 74,
    "conditions": "Mostly Cloudy"
  },
  "SBKP": {
    "id": "SBKP",
    "city": "campinas/viracop",
    "region": "",
    "country": "br",
    "latitude": -23,
    "longitude": -47.116666666667,
    "time": "2015-02-17T02:00:00-02:00",
    "temp": 20,
    "dewpoint": 20,
    "humidity": 100,
    "conditions": "Light Rain"
  },
  "SBSV": {
    "id": "SBSV",
    "city": "salvador/dois ju",
    "region": "",
    "country": "br",
    "latitude": -12.9,
    "longitude": -38.316666666667,
    "time": "2015-02-17T02:00:00-02:00",
    "temp": 27,
    "dewpoint": 23,
    "humidity": 79,
    "conditions": "Partly Cloudy"
  },
  "SBMQ": {
    "id": "SBMQ",
    "city": "macapa intl airp",
    "region": "",
    "country": "br",
    "latitude": 0.05,
    "longitude": -51.066666666667,
    "time": "2015-02-17T01:00:00-03:00",
    "temp": 26,
    "dewpoint": 25,
    "humidity": 94,
    "conditions": "Mostly Clear"
  },
  "SBPL": {
    "id": "SBPL",
    "city": "petrolina airpor",
    "region": "",
    "country": "br",
    "latitude": -9.3666666666667,
    "longitude": -40.566666666667,
    "time": "2015-02-17T02:00:00-02:00",
    "temp": 28,
    "dewpoint": 19,
    "humidity": 58,
    "conditions": "Mostly Clear"
  },
  "MYGF": {
    "id": "MYGF",
    "city": "freeport intl a",
    "region": "",
    "country": "bs",
    "latitude": 26.55,
    "longitude": -78.7,
    "time": "2015-02-16T20:00:00-05:00",
    "temp": 20,
    "dewpoint": 17,
    "humidity": 83,
    "conditions": "Mostly Cloudy"
  },
  "MBPV": {
    "id": "MBPV",
    "city": "providenciales",
    "region": "",
    "country": "bs",
    "latitude": 21.766666666667,
    "longitude": -72.266666666667,
    "time": "2015-02-16T20:00:00-05:00",
    "temp": 25,
    "dewpoint": 17,
    "humidity": 61,
    "conditions": "Partly Cloudy"
  },
  "MBGT": {
    "id": "MBGT",
    "city": "turks island",
    "region": "",
    "country": "bs",
    "latitude": 21.433333333333,
    "longitude": -71.15,
    "time": "2015-02-16T20:00:00-05:00",
    "temp": 23,
    "dewpoint": 13,
    "humidity": 53,
    "conditions": "Partly Cloudy"
  },
  "MYNN": {
    "id": "MYNN",
    "city": "nassau intl",
    "region": "",
    "country": "bs",
    "latitude": 25.033333333333,
    "longitude": -77.466666666667,
    "time": "2015-02-16T22:00:00-05:00",
    "temp": 21,
    "dewpoint": 19,
    "humidity": 88,
    "conditions": "Mostly Clear"
  },
  "VQPR": {
    "id": "VQPR",
    "city": "paro",
    "region": "",
    "country": "bt",
    "latitude": 27.4,
    "longitude": 89.433333333333,
    "time": "2015-02-17T09:50:00+06:00",
    "temp": 6,
    "dewpoint": -3,
    "humidity": 53,
    "conditions": "Partly Cloudy"
  },
  "FBMN": {
    "id": "FBMN",
    "city": "maun",
    "region": "",
    "country": "bw",
    "latitude": -19.966666666667,
    "longitude": 23.416666666667,
    "time": "2015-02-17T06:00:00+02:00",
    "temp": 22,
    "dewpoint": 17,
    "humidity": 73,
    "conditions": "Mostly Clear"
  },
  "FBFT": {
    "id": "FBFT",
    "city": "francistown",
    "region": "",
    "country": "bw",
    "latitude": -21.166666666667,
    "longitude": 27.483333333333,
    "time": "2015-02-17T06:00:00+02:00",
    "temp": 17,
    "dewpoint": 15,
    "humidity": 88,
    "conditions": "Partly Cloudy"
  },
  "FBKE": {
    "id": "FBKE",
    "city": "kasane",
    "region": "",
    "country": "bw",
    "latitude": -17.816666666667,
    "longitude": 25.166666666667,
    "time": "2015-02-17T06:00:00+02:00",
    "temp": 20,
    "dewpoint": 19,
    "humidity": 94,
    "conditions": "Partly Cloudy"
  },
  "FBSK": {
    "id": "FBSK",
    "city": "sir seretse kham",
    "region": "",
    "country": "bw",
    "latitude": -24.55,
    "longitude": 25.916666666667,
    "time": "2015-02-17T06:00:00+02:00",
    "temp": 20,
    "dewpoint": 13,
    "humidity": 64,
    "conditions": "Mostly Cloudy"
  },
  "FBSP": {
    "id": "FBSP",
    "city": "selebi phikwe",
    "region": "",
    "country": "bw",
    "latitude": -22.05,
    "longitude": 27.816666666667,
    "time": "2015-02-17T06:00:00+02:00",
    "temp": 20,
    "dewpoint": 16,
    "humidity": 78,
    "conditions": "Mostly Cloudy"
  },
  "UMMG": {
    "id": "UMMG",
    "city": "grodno",
    "region": "",
    "country": "by",
    "latitude": 53.6,
    "longitude": 24.05,
    "time": "2015-02-17T06:00:00+03:00",
    "temp": -8,
    "dewpoint": -16,
    "humidity": 53,
    "conditions": "Mostly Clear"
  },
  "UMBB": {
    "id": "UMBB",
    "city": "brest",
    "region": "",
    "country": "by",
    "latitude": 52.116666666667,
    "longitude": 23.9,
    "time": "2015-02-17T06:00:00+03:00",
    "temp": -9,
    "dewpoint": -17,
    "humidity": 53,
    "conditions": "Mostly Clear"
  },
  "UMMS": {
    "id": "UMMS",
    "city": "minsk",
    "region": "",
    "country": "by",
    "latitude": 53.883333333333,
    "longitude": 28.033333333333,
    "time": "2015-02-17T06:30:00+03:00",
    "temp": -17,
    "dewpoint": -18,
    "humidity": 92,
    "conditions": "Clear"
  },
  "UMGG": {
    "id": "UMGG",
    "city": "gomel",
    "region": "",
    "country": "by",
    "latitude": 52.533333333333,
    "longitude": 31.016666666667,
    "time": "2015-02-17T06:30:00+03:00",
    "temp": -13,
    "dewpoint": -16,
    "humidity": 78,
    "conditions": "Clear"
  },
  "MZBZ": {
    "id": "MZBZ",
    "city": "belize intl",
    "region": "",
    "country": "bz",
    "latitude": 17.516666666667,
    "longitude": -88.3,
    "time": "2015-02-16T17:00:00-06:00",
    "temp": 27,
    "dewpoint": 20,
    "humidity": 66,
    "conditions": "Mostly Sunny"
  },
  "FEFF": {
    "id": "FEFF",
    "city": "bangui/m'poko (m",
    "region": "",
    "country": "cf",
    "latitude": 4.4,
    "longitude": 18.516666666667,
    "time": "2015-02-17T04:00:00+01:00",
    "temp": 24,
    "dewpoint": 21,
    "humidity": 83,
    "conditions": "Mostly Clear"
  },
  "FCPP": {
    "id": "FCPP",
    "city": "pointe-noire",
    "region": "",
    "country": "cg",
    "latitude": -4.8166666666667,
    "longitude": 11.9,
    "time": "2015-02-17T04:00:00+01:00",
    "temp": 26,
    "dewpoint": 25,
    "humidity": 94,
    "conditions": "Scattered Storms"
  },
  "FCBB": {
    "id": "FCBB",
    "city": "brazzaville/maya",
    "region": "",
    "country": "cg",
    "latitude": -4.25,
    "longitude": 15.25,
    "time": "2015-02-17T04:00:00+01:00",
    "temp": 22,
    "dewpoint": 22,
    "humidity": 100,
    "conditions": "Light Thunderstorms"
  },
  "LSZA": {
    "id": "LSZA",
    "city": "lugano (pvt/aut)",
    "region": "",
    "country": "ch",
    "latitude": 46,
    "longitude": 8.9166666666667,
    "time": "2015-02-17T04:50:00+01:00",
    "temp": 2,
    "dewpoint": 2,
    "humidity": 100,
    "conditions": "Cloudy"
  },
  "LSZL": {
    "id": "LSZL",
    "city": "locarno",
    "region": "",
    "country": "ch",
    "latitude": 46.166666666667,
    "longitude": 8.8833333333333,
    "time": "2015-02-17T04:50:00+01:00",
    "temp": 2,
    "dewpoint": 1,
    "humidity": 93,
    "conditions": "Cloudy"
  },
  "LSZR": {
    "id": "LSZR",
    "city": "rheineck/altenrh",
    "region": "",
    "country": "ch",
    "latitude": 47.483333333333,
    "longitude": 9.5666666666667,
    "time": "2015-02-17T04:50:00+01:00",
    "temp": 0,
    "dewpoint": -1,
    "humidity": 93,
    "conditions": "Mist and Fog"
  },
  "LSZH": {
    "id": "LSZH",
    "city": "zurich-kloten (a",
    "region": "",
    "country": "ch",
    "latitude": 47.483333333333,
    "longitude": 8.5333333333333,
    "time": "2015-02-17T04:50:00+01:00",
    "temp": -1,
    "dewpoint": -2,
    "humidity": 93,
    "conditions": "Mist and Fog"
  },
  "LSZB": {
    "id": "LSZB",
    "city": "bern/belp",
    "region": "",
    "country": "ch",
    "latitude": 46.916666666667,
    "longitude": 7.5,
    "time": "2015-02-17T04:50:00+01:00",
    "temp": -1,
    "dewpoint": -1,
    "humidity": 100,
    "conditions": "Freezing Fog"
  },
  "LSMD": {
    "id": "LSMD",
    "city": "dubendorf",
    "region": "",
    "country": "ch",
    "latitude": 47.4,
    "longitude": 8.65,
    "time": "2015-02-17T04:50:00+01:00",
    "temp": -1,
    "dewpoint": -2,
    "humidity": 93,
    "conditions": "Mist and Fog"
  },
  "LSME": {
    "id": "LSME",
    "city": "emmen",
    "region": "",
    "country": "ch",
    "latitude": 47.1,
    "longitude": 8.3,
    "time": "2015-02-17T04:50:00+01:00",
    "temp": 0,
    "dewpoint": -1,
    "humidity": 93,
    "conditions": "Mist and Fog"
  },
  "LSZG": {
    "id": "LSZG",
    "city": "grenchen",
    "region": "",
    "country": "ch",
    "latitude": 47.166666666667,
    "longitude": 7.4166666666667,
    "time": "2015-02-17T04:50:00+01:00",
    "temp": -1,
    "dewpoint": -1,
    "humidity": 100,
    "conditions": "Freezing Fog"
  },
  "LSGG": {
    "id": "LSGG",
    "city": "geneva/cointrin",
    "region": "",
    "country": "ch",
    "latitude": 46.25,
    "longitude": 6.1166666666667,
    "time": "2015-02-17T04:50:00+01:00",
    "temp": 1,
    "dewpoint": 1,
    "humidity": 100,
    "conditions": "Mist and Fog"
  },
  "LSGC": {
    "id": "LSGC",
    "city": "les eplatures",
    "region": "",
    "country": "ch",
    "latitude": 47.083333333333,
    "longitude": 6.8,
    "time": "2015-02-17T04:50:00+01:00",
    "temp": -5,
    "dewpoint": -7,
    "humidity": 86,
    "conditions": "Mostly Clear"
  },
  "LSMA": {
    "id": "LSMA",
    "city": "alpnach",
    "region": "",
    "country": "ch",
    "latitude": 46.95,
    "longitude": 8.2833333333333,
    "time": "2015-02-17T04:50:00+01:00",
    "temp": 0,
    "dewpoint": -1,
    "humidity": 93,
    "conditions": "Mist and Fog"
  },
  "LSMS": {
    "id": "LSMS",
    "city": "sion (mil)",
    "region": "",
    "country": "ch",
    "latitude": 46.216666666667,
    "longitude": 7.3166666666667,
    "time": "2015-02-17T04:50:00+01:00",
    "temp": 0,
    "dewpoint": -1,
    "humidity": 93,
    "conditions": "Mist and Fog"
  },
  "LSZC": {
    "id": "LSZC",
    "city": "buochs",
    "region": "",
    "country": "ch",
    "latitude": 46.966666666667,
    "longitude": 8.3833333333333,
    "time": "2015-02-17T04:50:00+01:00",
    "temp": 0,
    "dewpoint": -1,
    "humidity": 93,
    "conditions": "Mist and Fog"
  },
  "LSMM": {
    "id": "LSMM",
    "city": "meiringen",
    "region": "",
    "country": "ch",
    "latitude": 46.75,
    "longitude": 8.1166666666667,
    "time": "2015-02-17T04:50:00+01:00",
    "temp": 0,
    "dewpoint": -1,
    "humidity": 93,
    "conditions": "Mist and Fog"
  },
  "SCPQ": {
    "id": "SCPQ",
    "city": "monopulli",
    "region": "",
    "country": "ch",
    "latitude": -42.333333333333,
    "longitude": -73.716666666667,
    "time": "2015-02-17T01:00:00-03:00",
    "temp": 10,
    "dewpoint": 4,
    "humidity": 67,
    "conditions": "Mostly Clear"
  },
  "DIAP": {
    "id": "DIAP",
    "city": "abidjan/port bou",
    "region": "",
    "country": "ci",
    "latitude": 5.25,
    "longitude": -3.9166666666667,
    "time": "2015-02-17T03:30:00+00:00",
    "temp": 27,
    "dewpoint": 26,
    "humidity": 94,
    "conditions": "Mostly Clear"
  },
  "SCCH": {
    "id": "SCCH",
    "city": "chillan/gen bern",
    "region": "",
    "country": "cl",
    "latitude": -36.566666666667,
    "longitude": -72.016666666667,
    "time": "2015-02-16T21:00:00-03:00",
    "temp": null,
    "dewpoint": null,
    "humidity": null,
    "conditions": "Mostly Clear"
  },
  "SCIP": {
    "id": "SCIP",
    "city": "easter island",
    "region": "",
    "country": "cl",
    "latitude": -27.166666666667,
    "longitude": -109.43333333333,
    "time": "2015-02-16T23:00:00-05:00",
    "temp": 24,
    "dewpoint": 19,
    "humidity": 74,
    "conditions": "Mostly Clear"
  },
  "SCTE": {
    "id": "SCTE",
    "city": "puerto montt/tep",
    "region": "",
    "country": "cl",
    "latitude": -41.416666666667,
    "longitude": -73.066666666667,
    "time": "2015-02-17T01:00:00-03:00",
    "temp": 10,
    "dewpoint": 6,
    "humidity": 76,
    "conditions": "Mostly Clear"
  },
  "SCCI": {
    "id": "SCCI",
    "city": "punta arenas/pre",
    "region": "",
    "country": "cl",
    "latitude": -53,
    "longitude": -70.833333333333,
    "time": "2015-02-17T01:00:00-03:00",
    "temp": 7,
    "dewpoint": 2,
    "humidity": 71,
    "conditions": "Partly Cloudy"
  },
  "SCEL": {
    "id": "SCEL",
    "city": "pudahuel/arturo",
    "region": "",
    "country": "cl",
    "latitude": -33.366666666667,
    "longitude": -70.766666666667,
    "time": "2015-02-17T01:00:00-03:00",
    "temp": 18,
    "dewpoint": 10,
    "humidity": 60,
    "conditions": "Mostly Clear"
  },
  "SCIE": {
    "id": "SCIE",
    "city": "concepcion/carri",
    "region": "",
    "country": "cl",
    "latitude": -36.766666666667,
    "longitude": -73.066666666667,
    "time": "2015-02-17T01:00:00-03:00",
    "temp": 14,
    "dewpoint": 9,
    "humidity": 72,
    "conditions": "Mostly Clear"
  },
  "SCVD": {
    "id": "SCVD",
    "city": "valdivia/pichoy",
    "region": "",
    "country": "cl",
    "latitude": -39.65,
    "longitude": -73.066666666667,
    "time": "2015-02-17T01:00:00-03:00",
    "temp": 15,
    "dewpoint": 8,
    "humidity": 63,
    "conditions": "Mostly Clear"
  },
  "SCFA": {
    "id": "SCFA",
    "city": "antofagasta/cerr",
    "region": "",
    "country": "cl",
    "latitude": -23.416666666667,
    "longitude": -70.416666666667,
    "time": "2015-02-17T01:00:00-03:00",
    "temp": 19,
    "dewpoint": 15,
    "humidity": 78,
    "conditions": "Mostly Clear"
  },
  "SCBA": {
    "id": "SCBA",
    "city": "balmaceda",
    "region": "",
    "country": "cl",
    "latitude": -45.916666666667,
    "longitude": -71.666666666667,
    "time": "2015-02-17T01:00:00-03:00",
    "temp": 8,
    "dewpoint": 1,
    "humidity": 62,
    "conditions": "Mostly Clear"
  },
  "SCAR": {
    "id": "SCAR",
    "city": "arica/chacalluta",
    "region": "",
    "country": "cl",
    "latitude": -18.35,
    "longitude": -70.316666666667,
    "time": "2015-02-17T01:00:00-03:00",
    "temp": 22,
    "dewpoint": 18,
    "humidity": 78,
    "conditions": "Mostly Clear"
  },
  "SCAT": {
    "id": "SCAT",
    "city": "desierto atacama",
    "region": "",
    "country": "cl",
    "latitude": -27.266666666667,
    "longitude": -70.766666666667,
    "time": "2015-02-17T01:00:00-03:00",
    "temp": 17,
    "dewpoint": 14,
    "humidity": 83,
    "conditions": "Mostly Clear"
  },
  "SCSE": {
    "id": "SCSE",
    "city": "la serena/laflor",
    "region": "",
    "country": "cl",
    "latitude": -29.916666666667,
    "longitude": -71.2,
    "time": "2015-02-17T01:00:00-03:00",
    "temp": 17,
    "dewpoint": 14,
    "humidity": 83,
    "conditions": "Cloudy"
  },
  "SCDA": {
    "id": "SCDA",
    "city": "iquique/diego ar",
    "region": "",
    "country": "cl",
    "latitude": -20.516666666667,
    "longitude": -70.166666666667,
    "time": "2015-02-17T01:00:00-03:00",
    "temp": 21,
    "dewpoint": 16,
    "humidity": 73,
    "conditions": "Mostly Clear"
  },
  "SCCF": {
    "id": "SCCF",
    "city": "calama/el loa",
    "region": "",
    "country": "cl",
    "latitude": -22.5,
    "longitude": -68.9,
    "time": "2015-02-17T01:00:00-03:00",
    "temp": 14,
    "dewpoint": 2,
    "humidity": 44,
    "conditions": "Mostly Clear"
  },
  "SCTN": {
    "id": "SCTN",
    "city": "chaiten",
    "region": "",
    "country": "cl",
    "latitude": -42.916666666667,
    "longitude": -72.7,
    "time": "2015-02-17T01:00:00-03:00",
    "temp": 12,
    "dewpoint": 9,
    "humidity": 82,
    "conditions": "Mostly Clear"
  },